AppleLocationVisitKey,ParticipantIdentifier,ArrivalTime,DepartureTime,Latitude,Longitude,HorizontalAccuracy,InsertedDate
beb6afb3-074b-ed11-aac0-0afb9334277d,146e1ab8-c4ca-4a52-9261-e108b38eea53,2022-10-13T10:44:38-04:00,2022-10-13T10:56:35-04:00,43.760502549150765,-79.720066163992016,93.068237356239848,2022-10-13T15:00:02Z
3c8631ba-184b-ed11-aac0-0afb9334277d,146e1ab8-c4ca-4a52-9261-e108b38eea53,2022-10-13T11:00:29-04:00,2022-10-13T12:59:01-04:00,43.736935604994599,-79.728243307949768,65.093783524984971,2022-10-13T17:01:50Z
3faf4a6d-084b-ed11-aac0-0afb9334277d,146e1ab8-c4ca-4a52-9261-e108b38eea53,2022-10-13T11:00:29-04:00,,43.736522507892651,-79.728501045746626,190.2472199150981,2022-10-13T15:05:15Z
808b0447-064b-ed11-aac0-0afb9334277d,146e1ab8-c4ca-4a52-9261-e108b38eea53,2022-10-13T10:44:38-04:00,,43.761030885840057,-79.720967644858518,168.66666666666666,2022-10-13T14:49:47Z
072481d0-394b-ed11-aac0-0afb9334277d,156895d9-0f71-4844-92dd-3fb298f84f2b,2022-10-13T16:48:58-04:00,2022-10-13T16:57:39-04:00,43.763503351669016,-79.226874830931024,119.70658556328587,2022-10-13T20:58:44Z
488cb910-394b-ed11-aac0-0afb9334277d,156895d9-0f71-4844-92dd-3fb298f84f2b,2022-10-13T16:48:58-04:00,,43.763988244212776,-79.226890247021188,37,2022-10-13T20:53:27Z
692a0ebd-384b-ed11-aac0-0afb9334277d,156895d9-0f71-4844-92dd-3fb298f84f2b,2022-10-13T16:16:15-04:00,2022-10-13T16:48:50-04:00,43.767929027389357,-79.228605172452518,73.828532287038556,2022-10-13T20:51:01Z
c8401e11-064b-ed11-aac0-0afb9334277d,fa996c7b-fd1c-4cba-990a-336f4cefaeb4,2022-10-12T21:34:04-04:00,2022-10-13T10:47:37-04:00,42.929084616526879,-81.271371603028769,29.804989191189748,2022-10-13T14:48:22Z
8cd1f1f9-f84a-ed11-aac0-0afb9334277d,dc75ed11-fb0f-4f28-a74e-9d08d2f6c26a,,2022-10-13T10:12:26-03:00,45.068506793478782,-64.45302536398205,50.397389011565124,2022-10-13T13:14:43Z
9ebae536-fa4a-ed11-aac0-0afb9334277d,dc75ed11-fb0f-4f28-a74e-9d08d2f6c26a,2022-10-13T10:13:31-03:00,,45.066940052198753,-64.442914488584137,112.90101219734044,2022-10-13T13:23:33Z
ab2f7eb3-fd4a-ed11-aac0-0afb9334277d,dc75ed11-fb0f-4f28-a74e-9d08d2f6c26a,2022-10-13T10:13:31-03:00,2022-10-13T10:40:48-03:00,45.066846211984817,-64.44303615670799,93.303517792624746,2022-10-13T13:48:32Z
5b2985d4-004b-ed11-aac0-0afb9334277d,dc75ed11-fb0f-4f28-a74e-9d08d2f6c26a,2022-10-13T10:54:46-03:00,,45.136230689730638,-64.319282231160216,132.15181004915752,2022-10-13T14:10:49Z
df2b047c-014b-ed11-aac0-0afb9334277d,dc75ed11-fb0f-4f28-a74e-9d08d2f6c26a,2022-10-13T10:54:46-03:00,2022-10-13T11:10:57-03:00,45.136007143351343,-64.319182612073021,118.11103895224105,2022-10-13T14:15:29Z
1d5675d9-034b-ed11-aac0-0afb9334277d,dc75ed11-fb0f-4f28-a74e-9d08d2f6c26a,2022-10-13T11:27:42-03:00,,45.07485222770682,-64.409599764401122,45.50179872617516,2022-10-13T14:32:26Z
31f21b30-074b-ed11-aac0-0afb9334277d,fa996c7b-fd1c-4cba-990a-336f4cefaeb4,2022-10-13T10:51:34-04:00,,42.941605229236963,-81.236618264769916,52,2022-10-13T14:56:27Z
aeee9025-084b-ed11-aac0-0afb9334277d,fa996c7b-fd1c-4cba-990a-336f4cefaeb4,2022-10-13T10:51:34-04:00,2022-10-13T11:01:41-04:00,42.941642736952033,-81.23721721429736,108.97555106074537,2022-10-13T15:03:15Z
c593662f-094b-ed11-aac0-0afb9334277d,fa996c7b-fd1c-4cba-990a-336f4cefaeb4,2022-10-13T11:06:05-04:00,,42.928867984752515,-81.271182564336371,212,2022-10-13T15:10:44Z
3528c921-1a4b-ed11-aac0-0afb9334277d,146e1ab8-c4ca-4a52-9261-e108b38eea53,2022-10-13T13:10:08-04:00,,43.73738430384229,-79.728376174617168,72.175793096725386,2022-10-13T17:11:55Z
4aae5040-204b-ed11-aac0-0afb9334277d,146e1ab8-c4ca-4a52-9261-e108b38eea53,2022-10-13T13:10:08-04:00,2022-10-13T13:50:07-04:00,43.736788107935112,-79.728237763669867,57.459120711891941,2022-10-13T17:55:44Z
3bfa4542-214b-ed11-aac0-0afb9334277d,146e1ab8-c4ca-4a52-9261-e108b38eea53,2022-10-13T13:58:51-04:00,,43.772229129017049,-79.703116076942848,38,2022-10-13T18:02:55Z
76357ba0-244b-ed11-aac0-0afb9334277d,fa996c7b-fd1c-4cba-990a-336f4cefaeb4,2022-10-13T11:06:05-04:00,2022-10-13T14:25:09-04:00,42.92910752730721,-81.271346879282532,43.543666070215139,2022-10-13T18:27:07Z
25b7c871-254b-ed11-aac0-0afb9334277d,fa996c7b-fd1c-4cba-990a-336f4cefaeb4,2022-10-13T14:27:07-04:00,,42.937199026255399,-81.283587188595874,40,2022-10-13T18:32:56Z
f18b132b-264b-ed11-aac0-0afb9334277d,fa996c7b-fd1c-4cba-990a-336f4cefaeb4,2022-10-13T14:27:07-04:00,2022-10-13T14:34:56-04:00,42.936318589534807,-81.281175688877681,40,2022-10-13T18:38:07Z
cfed7dd2-264b-ed11-aac0-0afb9334277d,fa996c7b-fd1c-4cba-990a-336f4cefaeb4,2022-10-13T14:37:48-04:00,,42.928845899349035,-81.271135979439379,42,2022-10-13T18:42:45Z
db22db75-2e4b-ed11-aac0-0afb9334277d,dc75ed11-fb0f-4f28-a74e-9d08d2f6c26a,2022-10-13T11:27:42-03:00,2022-10-13T16:35:16-03:00,45.074858022789883,-64.409625486057109,19.511664369218479,2022-10-13T19:37:28Z
f9a70d1a-344b-ed11-aac0-0afb9334277d,dc75ed11-fb0f-4f28-a74e-9d08d2f6c26a,2022-10-13T17:11:57-03:00,,45.074793525466262,-64.409673185919047,20,2022-10-13T20:17:51Z
d8ca7f04-364b-ed11-aac0-0afb9334277d,38bcd1b2-f8bc-48ee-bff2-5bca24012983,2022-10-12T18:27:37-04:00,2022-10-13T16:26:21-04:00,43.864652408045536,-79.42952474674378,13.166369783573728,2022-10-13T20:31:38Z
191c1893-384b-ed11-aac0-0afb9334277d,38bcd1b2-f8bc-48ee-bff2-5bca24012983,2022-10-13T16:48:03-04:00,,43.841193985014847,-79.422052386632174,35,2022-10-13T20:49:52Z
8bdbeb79-3f4b-ed11-aac0-0afb9334277d,fa996c7b-fd1c-4cba-990a-336f4cefaeb4,2022-10-13T14:37:48-04:00,2022-10-13T17:36:32-04:00,42.929084900363733,-81.27140372983861,27.00445274121342,2022-10-13T21:39:17Z
a81971f4-414b-ed11-aac0-0afb9334277d,fa996c7b-fd1c-4cba-990a-336f4cefaeb4,2022-10-13T17:56:41-04:00,,42.928769982630278,-81.271126014598721,151.15843420576175,2022-10-13T21:57:07Z
8272cce6-474b-ed11-aac0-0afb9334277d,64755242-4b1b-4ed6-86d3-4f48d695beab,2022-10-13T18:19:54-04:00,2022-10-13T18:33:04-04:00,43.655820673283159,-79.767606140983233,65.208669374306652,2022-10-13T22:39:32Z
6abac4ec-474b-ed11-aac0-0afb9334277d,64755242-4b1b-4ed6-86d3-4f48d695beab,2022-10-13T18:33:49-04:00,,43.659338903433046,-79.763779690761808,26.863070098015399,2022-10-13T22:39:42Z
adfc3d6b-4d4b-ed11-aac0-0afb9334277d,fa996c7b-fd1c-4cba-990a-336f4cefaeb4,2022-10-13T17:56:41-04:00,2022-10-13T19:16:53-04:00,42.929080243918257,-81.27139400117737,31.106728049819338,2022-10-13T23:19:03Z
536f3835-4f4b-ed11-aac0-0afb9334277d,fa996c7b-fd1c-4cba-990a-336f4cefaeb4,2022-10-13T19:23:10-04:00,,42.948733019146793,-81.292876182708767,68.463699062800004,2022-10-13T23:31:50Z
ada90207-504b-ed11-aac0-0afb9334277d,fa996c7b-fd1c-4cba-990a-336f4cefaeb4,2022-10-13T19:23:10-04:00,2022-10-13T19:33:19-04:00,42.94731548236112,-81.291898337853013,49.1177933114339,2022-10-13T23:37:46Z
8d8cd62a-504b-ed11-aac0-0afb9334277d,fa996c7b-fd1c-4cba-990a-336f4cefaeb4,2022-10-13T19:33:55-04:00,,42.950353241379624,-81.289298497250599,59.856355186899997,2022-10-13T23:38:45Z
0310e333-514b-ed11-aac0-0afb9334277d,fa996c7b-fd1c-4cba-990a-336f4cefaeb4,2022-10-13T19:33:55-04:00,2022-10-13T19:44:25-04:00,42.950069131961754,-81.289340219158774,107.1075255737145,2022-10-13T23:46:12Z
ec358c59-524b-ed11-aac0-0afb9334277d,fa996c7b-fd1c-4cba-990a-336f4cefaeb4,2022-10-13T19:47:27-04:00,,42.957617255154396,-81.275266980331949,221.732225304384,2022-10-13T23:54:23Z
68808065-524b-ed11-aac0-0afb9334277d,fa996c7b-fd1c-4cba-990a-336f4cefaeb4,2022-10-13T19:47:27-04:00,2022-10-13T19:52:10-04:00,42.957617255154396,-81.275266980331949,221.732225304384,2022-10-13T23:54:39Z
b928c8d8-534b-ed11-aac0-0afb9334277d,fa996c7b-fd1c-4cba-990a-336f4cefaeb4,2022-10-13T19:58:48-04:00,,42.982899958735203,-81.292491813870569,40,2022-10-14T00:05:07Z
8d4c10c9-574b-ed11-aac0-0afb9334277d,fa996c7b-fd1c-4cba-990a-336f4cefaeb4,2022-10-13T19:58:48-04:00,2022-10-13T20:31:23-04:00,42.98292517096246,-81.292395503891186,34.946943337208076,2022-10-14T00:33:16Z
a88e7a42-594b-ed11-aac0-0afb9334277d,fa996c7b-fd1c-4cba-990a-336f4cefaeb4,2022-10-13T20:34:58-04:00,,42.990988481146594,-81.275495387379266,50.948141653548326,2022-10-14T00:43:56Z
46205b32-5e4b-ed11-aac0-0afb9334277d,fa996c7b-fd1c-4cba-990a-336f4cefaeb4,2022-10-13T20:34:58-04:00,2022-10-13T21:15:49-04:00,42.990729321065238,-81.275334626736395,40.36230638996205,2022-10-14T01:19:13Z
7825d904-604b-ed11-aac0-0afb9334277d,38bcd1b2-f8bc-48ee-bff2-5bca24012983,2022-10-13T21:27:36-04:00,,43.864671356494014,-79.429511304163682,35,2022-10-14T01:32:18Z
f22e8b5e-604b-ed11-aac0-0afb9334277d,fa996c7b-fd1c-4cba-990a-336f4cefaeb4,2022-10-13T21:30:22-04:00,,42.931204926085101,-81.243475751745422,117.98093795008809,2022-10-14T01:34:46Z
7eb40d87-624b-ed11-aac0-0afb9334277d,fa996c7b-fd1c-4cba-990a-336f4cefaeb4,2022-10-13T21:30:22-04:00,2022-10-13T21:46:47-04:00,42.931245627842706,-81.243546514076797,40.758510833103756,2022-10-14T01:50:11Z
135742e2-634b-ed11-aac0-0afb9334277d,fa996c7b-fd1c-4cba-990a-336f4cefaeb4,2022-10-13T21:55:25-04:00,,42.928845280472274,-81.271190490357085,114.66666666666667,2022-10-14T01:59:55Z
af891943-724b-ed11-aac0-0afb9334277d,ea3d6bc5-1a3b-4542-a06a-6c6c9328e0fa,2022-10-13T23:37:11-04:00,,43.777370756600973,-79.323785810390831,40,2022-10-14T03:42:47Z
b41e1520-fb4a-ed11-aac0-0afb9334277d,5e0ae9ff-7cb8-499d-bee1-b1226869c14e,2022-10-12T23:41:52-04:00,2022-10-13T09:20:00-04:00,43.888088006459377,-78.93368149985676,18.333709569273626,2022-10-13T13:30:04Z
b51e1520-fb4a-ed11-aac0-0afb9334277d,5e0ae9ff-7cb8-499d-bee1-b1226869c14e,2022-10-13T09:29:08-04:00,,43.887992074590592,-78.933716590678713,53.666666666666664,2022-10-13T13:30:04Z
9f6058d5-054b-ed11-aac0-0afb9334277d,5e0ae9ff-7cb8-499d-bee1-b1226869c14e,2022-10-13T10:41:29-04:00,,43.783498161004367,-79.184103215077357,35,2022-10-13T14:46:42Z
4e1f6f33-124b-ed11-aac0-0afb9334277d,5e0ae9ff-7cb8-499d-bee1-b1226869c14e,2022-10-13T12:07:44-04:00,,43.784964610066169,-79.186942978563138,20,2022-10-13T16:15:12Z
34759126-234b-ed11-aac0-0afb9334277d,0ca43379-41b5-47fb-90ba-0a22e6bf5586,2022-10-12T19:48:39-04:00,2022-10-13T14:11:33-04:00,43.660462897756773,-79.332182897279168,14.608685983524037,2022-10-13T18:16:27Z
a4317ba0-244b-ed11-aac0-0afb9334277d,0ca43379-41b5-47fb-90ba-0a22e6bf5586,2022-10-13T14:22:31-04:00,,43.660284806377717,-79.332180622555555,20,2022-10-13T18:27:03Z
d1b60357-284b-ed11-aac0-0afb9334277d,5e0ae9ff-7cb8-499d-bee1-b1226869c14e,2022-10-13T14:48:40-04:00,,43.783495354468165,-79.184105068093785,20,2022-10-13T18:53:40Z
2dfbc6fe-384b-ed11-aac0-0afb9334277d,ea3d6bc5-1a3b-4542-a06a-6c6c9328e0fa,2022-10-11T22:58:44-04:00,2022-10-13T16:50:06-04:00,43.777732807739405,-79.323319642284233,9.45042773464181,2022-10-13T20:52:53Z
a80c89a1-3a4b-ed11-aac0-0afb9334277d,ea3d6bc5-1a3b-4542-a06a-6c6c9328e0fa,2022-10-13T16:57:08-04:00,,43.756912087226567,-79.313453699613234,35,2022-10-13T21:04:39Z
9255e425-3c4b-ed11-aac0-0afb9334277d,ea3d6bc5-1a3b-4542-a06a-6c6c9328e0fa,2022-10-13T16:57:08-04:00,2022-10-13T17:13:07-04:00,43.756858141433796,-79.313857955157914,68.89925493141088,2022-10-13T21:15:32Z
66a650a3-3c4b-ed11-aac0-0afb9334277d,ea3d6bc5-1a3b-4542-a06a-6c6c9328e0fa,2022-10-13T17:17:04-04:00,,43.777010078635612,-79.323349145479796,178.13402725199168,2022-10-13T21:19:03Z
7e7dcc3c-3e4b-ed11-aac0-0afb9334277d,90592e06-bcf6-4150-85b0-c5daf7e7569c,2022-10-13T16:59:10-04:00,2022-10-13T17:26:01-04:00,43.798759215469175,-79.319083273901086,98.775245515150246,2022-10-13T21:30:24Z
1b92c542-3e4b-ed11-aac0-0afb9334277d,90592e06-bcf6-4150-85b0-c5daf7e7569c,2022-10-13T17:26:03-04:00,,43.796859990318367,-79.323083037554824,35,2022-10-13T21:30:34Z
4a25eb90-434b-ed11-aac0-0afb9334277d,90592e06-bcf6-4150-85b0-c5daf7e7569c,2022-10-13T17:51:44-04:00,,43.824535628769894,-79.30053975740924,47.380987148815734,2022-10-13T22:08:32Z
8e23b310-484b-ed11-aac0-0afb9334277d,5e0ae9ff-7cb8-499d-bee1-b1226869c14e,2022-10-13T16:07:46-04:00,2022-10-13T18:37:14-04:00,43.858711061825282,-79.361333965678853,16.772119735233623,2022-10-13T22:40:47Z
07a08e6c-504b-ed11-aac0-0afb9334277d,5e0ae9ff-7cb8-499d-bee1-b1226869c14e,2022-10-13T19:31:01-04:00,,43.858713402131599,-79.361312795769038,23,2022-10-13T23:40:40Z
3535db74-544b-ed11-aac0-0afb9334277d,ea3d6bc5-1a3b-4542-a06a-6c6c9328e0fa,2022-10-13T17:17:04-04:00,2022-10-13T20:07:17-04:00,43.777680016493299,-79.323316527846018,25.803125417840839,2022-10-14T00:09:28Z
b3142f93-574b-ed11-aac0-0afb9334277d,ea3d6bc5-1a3b-4542-a06a-6c6c9328e0fa,2022-10-13T20:29:13-04:00,,43.829728506481857,-79.362063674948814,168.49965748276685,2022-10-14T00:31:47Z
a6410394-704b-ed11-aac0-0afb9334277d,ea3d6bc5-1a3b-4542-a06a-6c6c9328e0fa,2022-10-13T20:29:13-04:00,2022-10-13T23:27:34-04:00,43.82953977602466,-79.362921116301123,51.013658068840513,2022-10-14T03:30:48Z
f0e6351b-044b-ed11-aac0-0afb9334277d,151eec8c-0ba1-48ba-afc8-f2874dad3a2b,2022-10-12T17:50:04-04:00,2022-10-13T10:32:31-04:00,43.907275035758929,-79.820554824900526,15.31168204061785,2022-10-13T14:34:14Z
8df4666c-0d4b-ed11-aac0-0afb9334277d,151eec8c-0ba1-48ba-afc8-f2874dad3a2b,2022-10-13T11:04:18-04:00,2022-10-13T11:39:31-04:00,43.875869109473925,-79.734648495219659,79.489510561157616,2022-10-13T15:41:05Z
ce765d03-284b-ed11-aac0-0afb9334277d,6aef7713-ae07-41bf-a330-b2a94708f8eb,2022-10-13T14:46:46-04:00,,43.933757507122642,-78.833221406665416,44.905656789119213,2022-10-13T18:51:23Z
0e517135-2f4b-ed11-aac0-0afb9334277d,d77924dd-6dcf-4288-bb01-186fa08cfd0b,2022-10-13T15:36:42-04:00,2022-10-13T15:41:21-04:00,43.885622793264055,-78.981649672804863,133.34987110058154,2022-10-13T19:42:52Z
f4db58a0-634b-ed11-aac0-0afb9334277d,151eec8c-0ba1-48ba-afc8-f2874dad3a2b,2022-10-13T21:02:17-04:00,2022-10-13T21:56:26-04:00,43.828609970870247,-79.534763879616165,42.555810910581876,2022-10-14T01:58:04Z
c45993bf-644b-ed11-aac0-0afb9334277d,151eec8c-0ba1-48ba-afc8-f2874dad3a2b,2022-10-13T22:05:22-04:00,,43.753127245685086,-79.54166666401872,44.558029250399983,2022-10-14T02:06:10Z
7165ba80-664b-ed11-aac0-0afb9334277d,151eec8c-0ba1-48ba-afc8-f2874dad3a2b,2022-10-13T22:05:22-04:00,2022-10-13T22:13:33-04:00,43.753205140731616,-79.542143569678814,67.124530608736478,2022-10-14T02:18:37Z
d8bff88f-6c4b-ed11-aac0-0afb9334277d,151eec8c-0ba1-48ba-afc8-f2874dad3a2b,2022-10-13T23:01:13-04:00,,43.907019638505986,-79.820849213706111,48,2022-10-14T03:01:58Z
7283d876-754b-ed11-aac0-0afb9334277d,d77924dd-6dcf-4288-bb01-186fa08cfd0b,2022-10-13T15:51:07-04:00,2022-10-14T00:01:27-04:00,43.883500536103547,-78.912257233717241,45.2432250567742,2022-10-14T04:05:47Z
30a31583-754b-ed11-aac0-0afb9334277d,d77924dd-6dcf-4288-bb01-186fa08cfd0b,2022-10-14T00:01:36-04:00,,43.886934180237525,-78.912905019638288,175.73390118924254,2022-10-14T04:06:03Z
c4254895-754b-ed11-aac0-0afb9334277d,d77924dd-6dcf-4288-bb01-186fa08cfd0b,2022-10-14T00:01:36-04:00,2022-10-14T00:05:39-04:00,43.887208112616307,-78.912973358704761,175.73390118924254,2022-10-14T04:06:38Z
9c58de70-064b-ed11-aac0-0afb9334277d,151eec8c-0ba1-48ba-afc8-f2874dad3a2b,2022-10-13T10:45:50-04:00,,43.858658240506038,-79.71010486318022,40,2022-10-13T14:51:03Z
1b44192a-074b-ed11-aac0-0afb9334277d,151eec8c-0ba1-48ba-afc8-f2874dad3a2b,2022-10-13T10:45:50-04:00,2022-10-13T10:54:04-04:00,43.858780026884801,-79.710274469965441,95.262360357368749,2022-10-13T14:56:11Z
48f39fc5-074b-ed11-aac0-0afb9334277d,151eec8c-0ba1-48ba-afc8-f2874dad3a2b,2022-10-13T10:55:54-04:00,,43.868862718739734,-79.722076483567449,35.317010778658656,2022-10-13T15:00:28Z
74a08043-084b-ed11-aac0-0afb9334277d,151eec8c-0ba1-48ba-afc8-f2874dad3a2b,2022-10-13T10:55:54-04:00,2022-10-13T11:03:28-04:00,43.869725000000003,-79.724305199999989,10,2022-10-13T15:04:06Z
0a848ce7-084b-ed11-aac0-0afb9334277d,151eec8c-0ba1-48ba-afc8-f2874dad3a2b,2022-10-13T11:04:18-04:00,,43.875781838633742,-79.73498138678589,10,2022-10-13T15:08:39Z
3ddffeb5-0e4b-ed11-aac0-0afb9334277d,151eec8c-0ba1-48ba-afc8-f2874dad3a2b,2022-10-13T11:49:38-04:00,,43.907128485051111,-79.820751367492974,35,2022-10-13T15:50:16Z
7c42530d-104b-ed11-aac0-0afb9334277d,1e7aef96-16cc-43f8-95d4-e3bc582eb6d3,2022-10-13T11:42:13-04:00,2022-10-13T11:52:07-04:00,43.701863815799371,-79.690495917321485,94.077113075675896,2022-10-13T15:59:46Z
ae0a5179-224b-ed11-aac0-0afb9334277d,6aef7713-ae07-41bf-a330-b2a94708f8eb,2022-10-13T05:50:32-04:00,2022-10-13T14:05:03-04:00,43.894674735684482,-78.873513616287369,39.296227033599784,2022-10-13T18:11:38Z
283bad0f-244b-ed11-aac0-0afb9334277d,6aef7713-ae07-41bf-a330-b2a94708f8eb,2022-10-13T14:08:59-04:00,,43.887930874112811,-78.872085946621183,47.888900044673164,2022-10-13T18:22:58Z
4a1e6ff1-274b-ed11-aac0-0afb9334277d,1e7aef96-16cc-43f8-95d4-e3bc582eb6d3,2022-10-13T14:45:34-04:00,,43.687271489132527,-79.398260655830086,35,2022-10-13T18:50:53Z
4b1e6ff1-274b-ed11-aac0-0afb9334277d,1e7aef96-16cc-43f8-95d4-e3bc582eb6d3,2022-10-13T13:09:56-04:00,2022-10-13T14:17:14-04:00,43.665101331625571,-79.395899271486257,65.46363778205081,2022-10-13T18:50:53Z
ce02d0a4-284b-ed11-aac0-0afb9334277d,6aef7713-ae07-41bf-a330-b2a94708f8eb,2022-10-13T14:46:46-04:00,2022-10-13T14:51:28-04:00,43.933767138189367,-78.832203270540163,58.740445148358219,2022-10-13T18:55:49Z
a86f0b70-294b-ed11-aac0-0afb9334277d,6aef7713-ae07-41bf-a330-b2a94708f8eb,2022-10-13T14:57:01-04:00,,43.937827703874646,-78.827787494640305,35,2022-10-13T19:01:30Z
927fcaf7-2d4b-ed11-aac0-0afb9334277d,d77924dd-6dcf-4288-bb01-186fa08cfd0b,2022-10-12T16:55:45-04:00,2022-10-13T15:31:07-04:00,43.886977382159174,-78.982356700442324,17.258920257919566,2022-10-13T19:33:54Z
59ce7eed-2e4b-ed11-aac0-0afb9334277d,d77924dd-6dcf-4288-bb01-186fa08cfd0b,2022-10-13T15:36:42-04:00,,43.886987329923379,-78.982322031685797,35,2022-10-13T19:40:47Z
c0967c1d-2f4b-ed11-aac0-0afb9334277d,6aef7713-ae07-41bf-a330-b2a94708f8eb,2022-10-13T14:57:01-04:00,2022-10-13T15:37:55-04:00,43.937728564341967,-78.82768464090239,56.360833559089684,2022-10-13T19:42:12Z
3a1cd24e-304b-ed11-aac0-0afb9334277d,6aef7713-ae07-41bf-a330-b2a94708f8eb,2022-10-13T15:43:28-04:00,,43.906726956913566,-78.814312275375684,40,2022-10-13T19:50:46Z
14c66081-304b-ed11-aac0-0afb9334277d,d77924dd-6dcf-4288-bb01-186fa08cfd0b,2022-10-13T15:51:07-04:00,,43.883628747949921,-78.91247165350579,51.978495655995943,2022-10-13T19:52:04Z
726fc061-344b-ed11-aac0-0afb9334277d,1e7aef96-16cc-43f8-95d4-e3bc582eb6d3,2022-10-13T14:45:34-04:00,2022-10-13T16:10:57-04:00,43.687378399267537,-79.398164325527972,40.121090175415858,2022-10-13T20:19:52Z
d7e441eb-344b-ed11-aac0-0afb9334277d,1e7aef96-16cc-43f8-95d4-e3bc582eb6d3,2022-10-13T16:21:43-04:00,,43.677917066625753,-79.390008882924818,14.256134234243653,2022-10-13T20:23:41Z
c52d3b33-354b-ed11-aac0-0afb9334277d,0501ba67-3406-4779-aff1-878a0e9f7885,2022-10-13T02:27:05-04:00,2022-10-13T16:20:46-04:00,43.776179400209465,-79.168447611277671,27.456510076479042,2022-10-13T20:25:44Z
267f2c3f-354b-ed11-aac0-0afb9334277d,0501ba67-3406-4779-aff1-878a0e9f7885,2022-10-13T16:21:05-04:00,,43.776830433867204,-79.173611471994292,43,2022-10-13T20:26:01Z
fba20f7b-354b-ed11-aac0-0afb9334277d,0501ba67-3406-4779-aff1-878a0e9f7885,2022-10-13T16:21:05-04:00,2022-10-13T16:25:19-04:00,43.776746360426962,-79.173269798252932,39,2022-10-13T20:27:43Z
59a4e7e0-384b-ed11-aac0-0afb9334277d,0501ba67-3406-4779-aff1-878a0e9f7885,2022-10-13T16:35:36-04:00,,43.790094016219264,-79.193856271660437,66.263693416515324,2022-10-13T20:52:06Z
1f71b30a-454b-ed11-aac0-0afb9334277d,1e7aef96-16cc-43f8-95d4-e3bc582eb6d3,2022-10-13T18:14:25-04:00,,43.66686134159999,-79.38817605934976,191.30794893699183,2022-10-13T22:19:06Z
fdfe0c44-464b-ed11-aac0-0afb9334277d,0501ba67-3406-4779-aff1-878a0e9f7885,2022-10-13T16:35:36-04:00,2022-10-13T18:22:18-04:00,43.789986472146616,-79.193969975576522,54.23098277930476,2022-10-13T22:27:51Z
a8974e15-4a4b-ed11-aac0-0afb9334277d,0501ba67-3406-4779-aff1-878a0e9f7885,2022-10-13T18:38:25-04:00,,43.77485633598296,-79.179326970977257,63.72711926604731,2022-10-13T22:55:15Z
c42bb3a4-544b-ed11-aac0-0afb9334277d,0501ba67-3406-4779-aff1-878a0e9f7885,2022-10-13T18:38:25-04:00,2022-10-13T20:05:38-04:00,43.774923278219937,-79.178975128632359,52.08276700005117,2022-10-14T00:10:51Z
2e99cc87-554b-ed11-aac0-0afb9334277d,0501ba67-3406-4779-aff1-878a0e9f7885,2022-10-13T20:16:44-04:00,,43.776097279611967,-79.168148789921744,76.685714942644339,2022-10-14T00:17:13Z
c0483f4d-584b-ed11-aac0-0afb9334277d,151eec8c-0ba1-48ba-afc8-f2874dad3a2b,2022-10-13T11:49:58-04:00,2022-10-13T20:31:50-04:00,43.907259246802781,-79.820603077361412,13.959973010961326,2022-10-14T00:36:59Z
573e3a53-584b-ed11-aac0-0afb9334277d,1e7aef96-16cc-43f8-95d4-e3bc582eb6d3,2022-10-13T18:14:25-04:00,2022-10-13T20:34:26-04:00,43.667458681491539,-79.388154101896276,84.376224214955045,2022-10-14T00:37:10Z
53c9d565-5c4b-ed11-aac0-0afb9334277d,1e7aef96-16cc-43f8-95d4-e3bc582eb6d3,2022-10-13T20:56:43-04:00,,43.687379486804716,-79.396467230162287,118.48199068945732,2022-10-14T01:06:24Z
fa3aca71-5c4b-ed11-aac0-0afb9334277d,151eec8c-0ba1-48ba-afc8-f2874dad3a2b,2022-10-13T21:02:17-04:00,,43.82853649894296,-79.534908945334536,68.463699062800004,2022-10-14T01:06:43Z
e407adac-6b4b-ed11-aac0-0afb9334277d,151eec8c-0ba1-48ba-afc8-f2874dad3a2b,2022-10-13T22:45:31-04:00,,43.946331166773419,-79.831971041173787,61.234747979721703,2022-10-14T02:55:42Z
21551666-6c4b-ed11-aac0-0afb9334277d,151eec8c-0ba1-48ba-afc8-f2874dad3a2b,2022-10-13T22:45:31-04:00,2022-10-13T22:56:42-04:00,43.946301304082226,-79.831952926257046,54.708516181017401,2022-10-14T03:00:52Z
72882e03-004b-ed11-aac0-0afb9334277d,74b5736e-0605-4d41-a046-7fcb7c59e816,,2022-10-13T10:00:17-04:00,43.765511708944089,-79.315059015377273,10.016865333594509,2022-10-13T14:04:56Z
3e8f2e03-004b-ed11-aac0-0afb9334277d,74b5736e-0605-4d41-a046-7fcb7c59e816,2022-10-13T10:00:38-04:00,,43.764702651311218,-79.318475836111517,23.739498245185786,2022-10-13T14:05:04Z
2a271377-094b-ed11-aac0-0afb9334277d,9de55851-54a0-4295-b45f-1dc7d69c22a1,2022-10-13T08:54:40-04:00,2022-10-13T11:07:43-04:00,44.056616672608556,-79.485620601865733,106.95889000639221,2022-10-13T15:12:44Z
eb68cbb2-094b-ed11-aac0-0afb9334277d,9de55851-54a0-4295-b45f-1dc7d69c22a1,2022-10-13T11:08:24-04:00,,44.059768114133249,-79.484048787905536,40,2022-10-13T15:14:24Z
4f5da033-0f4b-ed11-aac0-0afb9334277d,9de55851-54a0-4295-b45f-1dc7d69c22a1,2022-10-13T11:49:01-04:00,,44.107668992364481,-79.480823011572809,35,2022-10-13T15:53:42Z
3a794302-114b-ed11-aac0-0afb9334277d,c2097f36-4ca3-4537-856d-a649d1557553,2022-10-13T11:59:19-04:00,,43.694058411852346,-79.287361597133497,35,2022-10-13T16:06:38Z
3b794302-114b-ed11-aac0-0afb9334277d,c2097f36-4ca3-4537-856d-a649d1557553,2022-10-13T11:45:15-04:00,,43.691051241655316,-79.288881335052736,144.48495584266053,2022-10-13T16:06:38Z
3c794302-114b-ed11-aac0-0afb9334277d,c2097f36-4ca3-4537-856d-a649d1557553,2022-10-13T11:11:24-04:00,2022-10-13T11:43:36-04:00,43.687227917024416,-79.286008498755791,40.061167998335996,2022-10-13T16:06:38Z
a7ea17f1-154b-ed11-aac0-0afb9334277d,bfc23509-915e-4c0a-bbad-8ed6fe3df8f1,,2022-10-13T12:40:04-04:00,43.851304599999999,-79.254657300000005,3141.0450513627179,2022-10-13T16:41:58Z
5ecc5cb1-1a4b-ed11-aac0-0afb9334277d,bfc23509-915e-4c0a-bbad-8ed6fe3df8f1,2022-10-13T13:15:12-04:00,,43.808469485537124,-79.165614501925759,5229.9838825442557,2022-10-13T17:15:54Z
1858444f-1d4b-ed11-aac0-0afb9334277d,837ea159-60c6-4bde-b3ba-2c107844a9bb,2022-10-12T21:46:43-04:00,2022-10-13T13:32:19-04:00,43.838193748593092,-79.104993747504722,49.41125407508919,2022-10-13T17:34:43Z
658b672e-204b-ed11-aac0-0afb9334277d,d8d66285-3bef-4819-b993-98c812a7c233,2022-10-13T13:49:34-04:00,,43.800793569678639,-79.225778846365898,51,2022-10-13T17:55:19Z
29135346-204b-ed11-aac0-0afb9334277d,837ea159-60c6-4bde-b3ba-2c107844a9bb,2022-10-13T13:44:58-04:00,,43.848408299136103,-79.072101427252846,62.99442579743679,2022-10-13T17:55:52Z
7ca50cf5-2f4b-ed11-aac0-0afb9334277d,837ea159-60c6-4bde-b3ba-2c107844a9bb,2022-10-13T15:43:32-04:00,,43.82997249820405,-79.122486720966378,40,2022-10-13T19:48:14Z
51af0d1a-344b-ed11-aac0-0afb9334277d,bf670311-c590-473a-98ab-d719ebf0f2ab,2022-10-13T16:13:17-04:00,,43.548063265845897,-79.661558008787622,20,2022-10-13T20:17:56Z
05e58876-394b-ed11-aac0-0afb9334277d,412330b3-cc02-4030-96cd-f4cfdcc45fa6,2022-10-13T16:40:15-04:00,2022-10-13T16:54:50-04:00,43.800696863221653,-79.299483528695134,40.109335444047687,2022-10-13T20:56:18Z
b44b1db2-3d4b-ed11-aac0-0afb9334277d,a9de00be-460d-4b74-bed3-bf013fe2052a,2022-10-11T17:02:21-04:00,2022-10-13T17:23:23-04:00,43.740591155081809,-79.272587078175121,38.863698193518978,2022-10-13T21:26:30Z
b1c0c4ec-474b-ed11-aac0-0afb9334277d,bf670311-c590-473a-98ab-d719ebf0f2ab,2022-10-13T18:34:25-04:00,,43.665704692210788,-79.734353624692957,68,2022-10-13T22:39:46Z
54256d96-f44a-ed11-aac0-0afb9334277d,9de55851-54a0-4295-b45f-1dc7d69c22a1,2022-10-10T20:21:39-04:00,2022-10-13T08:40:56-04:00,44.107662215735147,-79.480875785053243,9.3341729433704614,2022-10-13T12:43:08Z
a879cd5d-f74a-ed11-aac0-0afb9334277d,9de55851-54a0-4295-b45f-1dc7d69c22a1,2022-10-13T08:54:40-04:00,,44.056202859655428,-79.486028508011501,40,2022-10-13T13:03:06Z
9e73b590-fa4a-ed11-aac0-0afb9334277d,4217d9ff-07c0-42a5-9da9-f2e351b40709,2022-10-13T09:25:25-04:00,,44.148694525268105,-78.723310244353925,35,2022-10-13T13:26:01Z
be73b590-fa4a-ed11-aac0-0afb9334277d,4217d9ff-07c0-42a5-9da9-f2e351b40709,2022-10-12T14:38:17-04:00,2022-10-13T09:08:12-04:00,44.148710917435189,-78.723405197972639,8.4481030595284228,2022-10-13T13:26:01Z
5362f95c-004b-ed11-aac0-0afb9334277d,74b5736e-0605-4d41-a046-7fcb7c59e816,2022-10-13T10:00:38-04:00,2022-10-13T10:05:57-04:00,43.763637529620716,-79.317785010789521,232.10189244926872,2022-10-13T14:07:34Z
835c0b3c-074b-ed11-aac0-0afb9334277d,c62ae7a2-6fe6-4fd5-9b9e-93773b08d8b9,2022-10-12T20:49:01-04:00,2022-10-13T10:51:31-04:00,43.782627900242893,-79.183702162533933,64.638197067474152,2022-10-13T14:56:38Z
e84b3b37-0a4b-ed11-aac0-0afb9334277d,74b5736e-0605-4d41-a046-7fcb7c59e816,2022-10-13T11:08:05-04:00,,43.648526759713405,-79.385136029436438,99.697788531710387,2022-10-13T15:17:59Z
5000c9db-0b4b-ed11-aac0-0afb9334277d,bf670311-c590-473a-98ab-d719ebf0f2ab,2022-10-12T10:44:58-04:00,2022-10-13T11:27:39-04:00,43.7295509392751,-79.714281196056817,65.418252690596148,2022-10-13T15:29:49Z
fd37189b-0c4b-ed11-aac0-0afb9334277d,bf670311-c590-473a-98ab-d719ebf0f2ab,2022-10-13T11:30:51-04:00,,43.718750372865145,-79.720165675360107,34.408745678642681,2022-10-13T15:35:13Z
57b0d9d0-0c4b-ed11-aac0-0afb9334277d,9de55851-54a0-4295-b45f-1dc7d69c22a1,2022-10-13T11:08:24-04:00,2022-10-13T11:35:37-04:00,44.059771009835309,-79.483992292334548,50.756527482137969,2022-10-13T15:36:42Z
45a99606-0d4b-ed11-aac0-0afb9334277d,bf670311-c590-473a-98ab-d719ebf0f2ab,2022-10-13T11:30:51-04:00,2022-10-13T11:37:04-04:00,43.720378824630131,-79.721899653403568,82.55227303760104,2022-10-13T15:38:10Z
e34e5f69-0f4b-ed11-aac0-0afb9334277d,bf670311-c590-473a-98ab-d719ebf0f2ab,2022-10-13T11:50:39-04:00,,43.687515163861221,-79.76223888656132,51,2022-10-13T15:55:17Z
d86bbd84-104b-ed11-aac0-0afb9334277d,6b827de8-fe47-4007-aad3-202655b954e3,2022-10-12T13:38:47-04:00,2022-10-13T12:01:22-04:00,43.794955230465952,-79.31543771153116,27.572567486871069,2022-10-13T16:03:07Z
4dc61526-114b-ed11-aac0-0afb9334277d,6b827de8-fe47-4007-aad3-202655b954e3,2022-10-13T12:03:07-04:00,,43.799202053514186,-79.318933968654846,69.029649486072273,2022-10-13T16:07:37Z
49affb3d-114b-ed11-aac0-0afb9334277d,d520094e-39dc-47da-b764-049277fa48ad,2022-10-13T11:38:35-04:00,,43.694952302908092,-79.288883287672377,130.22445496175419,2022-10-13T16:08:17Z
4daffb3d-114b-ed11-aac0-0afb9334277d,d520094e-39dc-47da-b764-049277fa48ad,2022-10-13T11:55:54-04:00,,43.677093742312522,-79.358284606444528,21.763180659708553,2022-10-13T16:08:17Z
55affb3d-114b-ed11-aac0-0afb9334277d,d520094e-39dc-47da-b764-049277fa48ad,2022-10-13T11:38:35-04:00,2022-10-13T11:43:34-04:00,43.694606789855577,-79.288913878190968,63.768093062643601,2022-10-13T16:08:17Z
9e874ffd-114b-ed11-aac0-0afb9334277d,bf670311-c590-473a-98ab-d719ebf0f2ab,2022-10-13T11:50:39-04:00,2022-10-13T12:12:50-04:00,43.68731509019473,-79.761891176561548,45.247208504770242,2022-10-13T16:13:40Z
868c2c7b-124b-ed11-aac0-0afb9334277d,6b827de8-fe47-4007-aad3-202655b954e3,2022-10-13T12:03:07-04:00,2022-10-13T12:16:23-04:00,43.799403676958647,-79.319067081850392,74.976899089321662,2022-10-13T16:17:13Z
0a2c854c-134b-ed11-aac0-0afb9334277d,6b827de8-fe47-4007-aad3-202655b954e3,2022-10-13T12:17:41-04:00,,43.794628107399518,-79.315771788751931,39,2022-10-13T16:23:01Z
dd9824ac-134b-ed11-aac0-0afb9334277d,afbd4906-0513-42b1-91ce-d25065842f55,2022-10-12T20:39:01-04:00,2022-10-13T12:24:22-04:00,35.96691451207338,-79.068953613664178,10.757711300405948,2022-10-13T16:25:42Z
6bfffad5-134b-ed11-aac0-0afb9334277d,c62ae7a2-6fe6-4fd5-9b9e-93773b08d8b9,2022-10-13T12:03:38-04:00,,43.668390634303471,-79.397345719353424,64.488910570354321,2022-10-13T16:26:55Z
f064438f-174b-ed11-aac0-0afb9334277d,d520094e-39dc-47da-b764-049277fa48ad,2022-10-13T12:49:12-04:00,,43.694136281919803,-79.28884573191489,59.856355186899997,2022-10-13T16:53:31Z
bfb19f4e-184b-ed11-aac0-0afb9334277d,afbd4906-0513-42b1-91ce-d25065842f55,2022-10-13T12:43:43-04:00,,35.97182147400239,-78.950644037119716,50.181270826892501,2022-10-13T16:58:54Z
49ed6a99-1a4b-ed11-aac0-0afb9334277d,74b5736e-0605-4d41-a046-7fcb7c59e816,2022-10-13T11:08:05-04:00,2022-10-13T13:10:12-04:00,43.648714499618777,-79.385319215745241,71.828019957278087,2022-10-13T17:15:14Z
ac1bd84c-1b4b-ed11-aac0-0afb9334277d,afbd4906-0513-42b1-91ce-d25065842f55,2022-10-13T12:43:43-04:00,2022-10-13T13:19:25-04:00,35.971796911517195,-78.950648528775361,41.186240157417132,2022-10-13T17:20:20Z
d0e66eb8-1b4b-ed11-aac0-0afb9334277d,d520094e-39dc-47da-b764-049277fa48ad,2022-10-13T13:18:52-04:00,,43.747673679565757,-79.311086888592669,177.33333333333334,2022-10-13T17:23:25Z
7392e6ad-1c4b-ed11-aac0-0afb9334277d,afbd4906-0513-42b1-91ce-d25065842f55,2022-10-13T13:24:29-04:00,,35.954089214485379,-78.998145444718986,224.54470637093644,2022-10-13T17:30:11Z
d327afe9-1c4b-ed11-aac0-0afb9334277d,bf670311-c590-473a-98ab-d719ebf0f2ab,2022-10-13T13:26:29-04:00,,43.548324019777866,-79.662838700087065,21,2022-10-13T17:31:54Z
0c11ace2-204b-ed11-aac0-0afb9334277d,837ea159-60c6-4bde-b3ba-2c107844a9bb,2022-10-13T13:44:58-04:00,2022-10-13T13:58:57-04:00,43.848446753739864,-79.072094964604275,53.733330942104061,2022-10-13T18:00:19Z
5df1e4ef-214b-ed11-aac0-0afb9334277d,837ea159-60c6-4bde-b3ba-2c107844a9bb,2022-10-13T14:01:59-04:00,,43.838359408147916,-79.088395141979603,35,2022-10-13T18:07:54Z
6c416c5b-224b-ed11-aac0-0afb9334277d,74b5736e-0605-4d41-a046-7fcb7c59e816,2022-10-13T13:10:34-04:00,2022-10-13T13:55:13-04:00,43.653157702561764,-79.38009020907397,108.04517986709129,2022-10-13T18:10:47Z
b23f566d-224b-ed11-aac0-0afb9334277d,837ea159-60c6-4bde-b3ba-2c107844a9bb,2022-10-13T14:01:59-04:00,2022-10-13T14:08:45-04:00,43.838005559131169,-79.08834269810626,46,2022-10-13T18:11:24Z
37b404bb-224b-ed11-aac0-0afb9334277d,837ea159-60c6-4bde-b3ba-2c107844a9bb,2022-10-13T14:12:48-04:00,,43.838140532167891,-79.104844407044354,36,2022-10-13T18:13:28Z
9f13d8e4-224b-ed11-aac0-0afb9334277d,74b5736e-0605-4d41-a046-7fcb7c59e816,2022-10-13T14:09:59-04:00,,43.666806550932506,-79.3950926694922,56,2022-10-13T18:14:38Z
1465eeaf-234b-ed11-aac0-0afb9334277d,837ea159-60c6-4bde-b3ba-2c107844a9bb,2022-10-13T14:12:48-04:00,2022-10-13T14:18:16-04:00,43.838500173587967,-79.102644956801441,140.05651924119005,2022-10-13T18:20:19Z
72b7a903-244b-ed11-aac0-0afb9334277d,74b5736e-0605-4d41-a046-7fcb7c59e816,2022-10-13T14:09:59-04:00,2022-10-13T14:14:31-04:00,43.666675849797421,-79.395661449537243,10.735467802015862,2022-10-13T18:22:40Z
a8d9b509-244b-ed11-aac0-0afb9334277d,74b5736e-0605-4d41-a046-7fcb7c59e816,2022-10-13T14:14:55-04:00,,43.666041432498091,-79.398679483224953,96.333333333333329,2022-10-13T18:22:49Z
ceb573a6-244b-ed11-aac0-0afb9334277d,afbd4906-0513-42b1-91ce-d25065842f55,2022-10-13T13:24:29-04:00,2022-10-13T14:24:35-04:00,35.954626738239433,-78.998601239547781,56.898255130238603,2022-10-13T18:27:16Z
5fe6929b-254b-ed11-aac0-0afb9334277d,837ea159-60c6-4bde-b3ba-2c107844a9bb,2022-10-13T14:29:36-04:00,,43.838040248518375,-79.104682922983486,15.337103851099107,2022-10-13T18:34:11Z
ee48f44e-264b-ed11-aac0-0afb9334277d,afbd4906-0513-42b1-91ce-d25065842f55,2022-10-13T14:38:13-04:00,,35.966804870019217,-79.068874690404158,20,2022-10-13T18:39:08Z
467ab315-2e4b-ed11-aac0-0afb9334277d,74b5736e-0605-4d41-a046-7fcb7c59e816,2022-10-13T14:14:55-04:00,2022-10-13T15:10:10-04:00,43.667207001044339,-79.397019188330091,120.85144140570748,2022-10-13T19:34:52Z
f7738129-2f4b-ed11-aac0-0afb9334277d,837ea159-60c6-4bde-b3ba-2c107844a9bb,2022-10-13T14:29:36-04:00,2022-10-13T15:39:12-04:00,43.838119123519284,-79.104808229893777,36.160838609193071,2022-10-13T19:42:31Z
ed9be042-304b-ed11-aac0-0afb9334277d,6b827de8-fe47-4007-aad3-202655b954e3,2022-10-13T12:17:41-04:00,2022-10-13T15:48:33-04:00,43.794758438127083,-79.315723909453737,54.79597019513588,2022-10-13T19:50:18Z
9f96b740-314b-ed11-aac0-0afb9334277d,74b5736e-0605-4d41-a046-7fcb7c59e816,2022-10-13T15:49:44-04:00,2022-10-13T15:56:10-04:00,43.744157673918785,-79.402931527532957,20.30575866273173,2022-10-13T19:57:29Z
d71c59b9-324b-ed11-aac0-0afb9334277d,837ea159-60c6-4bde-b3ba-2c107844a9bb,2022-10-13T15:43:32-04:00,2022-10-13T16:06:49-04:00,43.830137101778668,-79.122224437094204,60.311139312429539,2022-10-13T20:07:56Z
a092460d-334b-ed11-aac0-0afb9334277d,d520094e-39dc-47da-b764-049277fa48ad,2022-10-13T15:29:57-04:00,,43.776246288666428,-79.346644748866908,78.308778988,2022-10-13T20:10:19Z
a492460d-334b-ed11-aac0-0afb9334277d,d520094e-39dc-47da-b764-049277fa48ad,2022-10-13T15:29:57-04:00,2022-10-13T16:07:59-04:00,43.776714529575706,-79.34610948363526,111.21577278624224,2022-10-13T20:10:19Z
b892460d-334b-ed11-aac0-0afb9334277d,d520094e-39dc-47da-b764-049277fa48ad,2022-10-13T13:18:52-04:00,2022-10-13T15:06:51-04:00,43.747842295982977,-79.310949116520646,20.762344020336275,2022-10-13T20:10:19Z
a508a973-344b-ed11-aac0-0afb9334277d,74b5736e-0605-4d41-a046-7fcb7c59e816,2022-10-13T16:14:56-04:00,,43.759195680247906,-79.315723184984165,65.663544989847509,2022-10-13T20:20:27Z
bca82345-354b-ed11-aac0-0afb9334277d,837ea159-60c6-4bde-b3ba-2c107844a9bb,2022-10-13T16:11:56-04:00,2022-10-13T16:21:25-04:00,43.842634413134512,-79.105215850700105,52.963542575814841,2022-10-13T20:26:13Z
c7a82345-354b-ed11-aac0-0afb9334277d,837ea159-60c6-4bde-b3ba-2c107844a9bb,2022-10-13T16:21:36-04:00,,43.838145485336355,-79.104913117987735,35,2022-10-13T20:26:13Z
fadd6522-364b-ed11-aac0-0afb9334277d,74b5736e-0605-4d41-a046-7fcb7c59e816,2022-10-13T16:28:00-04:00,,43.765472269738879,-79.315071021763529,35,2022-10-13T20:32:23Z
edd719cc-364b-ed11-aac0-0afb9334277d,bf670311-c590-473a-98ab-d719ebf0f2ab,2022-10-13T16:13:17-04:00,2022-10-13T16:33:57-04:00,43.548218970607664,-79.662407035217299,82.678672990906065,2022-10-13T20:37:05Z
658dbd43-374b-ed11-aac0-0afb9334277d,852b45ca-f506-42b2-b5bd-2b0072b1b28b,2022-10-13T00:12:21-04:00,2022-10-13T16:38:22-04:00,43.93851601558562,-78.887927774723721,11.168824124485848,2022-10-13T20:40:32Z
aa1220df-374b-ed11-aac0-0afb9334277d,2baee05a-5e5a-4436-8c25-2628d46d1e08,2022-10-13T16:29:31-04:00,,43.818862543813431,-79.280583159644252,34.301543153335629,2022-10-13T20:44:49Z
6f8cda26-384b-ed11-aac0-0afb9334277d,412330b3-cc02-4030-96cd-f4cfdcc45fa6,2022-10-13T16:40:15-04:00,,43.800615692147858,-79.299435424796229,206.66666666666666,2022-10-13T20:46:47Z
721c476f-384b-ed11-aac0-0afb9334277d,852b45ca-f506-42b2-b5bd-2b0072b1b28b,2022-10-13T16:48:04-04:00,,43.918499089042463,-78.94884510589668,5.3319958169285657,2022-10-13T20:48:58Z
0afce553-3a4b-ed11-aac0-0afb9334277d,c62ae7a2-6fe6-4fd5-9b9e-93773b08d8b9,2022-10-13T12:03:38-04:00,2022-10-13T16:58:03-04:00,43.668139690897753,-79.396921786191726,42.635945342206021,2022-10-13T21:02:30Z
ad875bc5-3a4b-ed11-aac0-0afb9334277d,412330b3-cc02-4030-96cd-f4cfdcc45fa6,2022-10-13T16:57:21-04:00,,43.797662165093016,-79.316765209313417,175.35211386009999,2022-10-13T21:05:36Z
cca6d042-3b4b-ed11-aac0-0afb9334277d,412330b3-cc02-4030-96cd-f4cfdcc45fa6,2022-10-13T16:57:21-04:00,2022-10-13T17:08:28-04:00,43.796940002111732,-79.315942226978365,35.985281284389785,2022-10-13T21:09:06Z
8654a978-3b4b-ed11-aac0-0afb9334277d,329e2c06-a903-44ce-a409-8ed8c580b124,2022-10-13T17:02:55-04:00,2022-10-13T17:08:49-04:00,43.761068419594096,-79.225760176851622,4.0293204315316276,2022-10-13T21:10:41Z
c2b70908-3c4b-ed11-aac0-0afb9334277d,c62ae7a2-6fe6-4fd5-9b9e-93773b08d8b9,2022-10-13T16:59:21-04:00,,43.665212059034857,-79.397473882679336,111.90982668350827,2022-10-13T21:14:41Z
c8f3fc13-3c4b-ed11-aac0-0afb9334277d,bf670311-c590-473a-98ab-d719ebf0f2ab,2022-10-13T16:56:27-04:00,,43.593509013935225,-79.648668180659996,67.876865270234958,2022-10-13T21:14:53Z
57043dbb-3c4b-ed11-aac0-0afb9334277d,329e2c06-a903-44ce-a409-8ed8c580b124,2022-10-13T17:16:46-04:00,,43.777641932880137,-79.230968219815026,68,2022-10-13T21:19:37Z
ca3c1ed3-3c4b-ed11-aac0-0afb9334277d,c62ae7a2-6fe6-4fd5-9b9e-93773b08d8b9,2022-10-13T16:59:21-04:00,2022-10-13T17:14:44-04:00,43.66509026920054,-79.397540924819154,111.47078669352808,2022-10-13T21:20:20Z
4abeac60-3e4b-ed11-aac0-0afb9334277d,412330b3-cc02-4030-96cd-f4cfdcc45fa6,2022-10-13T17:08:29-04:00,,43.792338113358831,-79.313713246922688,99.003230408490907,2022-10-13T21:31:27Z
942f0af8-3f4b-ed11-aac0-0afb9334277d,a9de00be-460d-4b74-bed3-bf013fe2052a,2022-10-13T17:37:18-04:00,,43.740767569841324,-79.272557623059981,30,2022-10-13T21:42:52Z
5c0e24c3-404b-ed11-aac0-0afb9334277d,412330b3-cc02-4030-96cd-f4cfdcc45fa6,2022-10-13T17:41:46-04:00,,43.798107985831471,-79.316849063576996,78.308778988,2022-10-13T21:48:34Z
9c7b7a0d-434b-ed11-aac0-0afb9334277d,bf670311-c590-473a-98ab-d719ebf0f2ab,2022-10-13T16:56:27-04:00,2022-10-13T17:58:59-04:00,43.593453494243178,-79.648636081798273,49.131533241238159,2022-10-13T22:04:55Z
56560be2-454b-ed11-aac0-0afb9334277d,bfc23509-915e-4c0a-bbad-8ed6fe3df8f1,2022-10-13T13:15:12-04:00,2022-10-13T18:20:44-04:00,43.808397483517446,-79.1661757250655,5229.9838825442557,2022-10-13T22:25:10Z
da1efded-454b-ed11-aac0-0afb9334277d,bfc23509-915e-4c0a-bbad-8ed6fe3df8f1,2022-10-13T18:21:06-04:00,,43.787002780400798,-79.208565321114861,3662.6970391559107,2022-10-13T22:25:28Z
ba71be7f-464b-ed11-aac0-0afb9334277d,bfc23509-915e-4c0a-bbad-8ed6fe3df8f1,2022-10-13T18:21:06-04:00,2022-10-13T18:26:54-04:00,43.787137792327307,-79.211844383762312,3662.6970391559107,2022-10-13T22:29:38Z
0dab064b-474b-ed11-aac0-0afb9334277d,412330b3-cc02-4030-96cd-f4cfdcc45fa6,2022-10-13T17:41:46-04:00,2022-10-13T18:33:57-04:00,43.797549164318688,-79.317029949319689,77.307614899534613,2022-10-13T22:35:10Z
9a4ee2c2-474b-ed11-aac0-0afb9334277d,412330b3-cc02-4030-96cd-f4cfdcc45fa6,2022-10-13T18:38:03-04:00,,43.802252988349537,-79.298662040364164,4.9257535749640207,2022-10-13T22:38:37Z
c65e8c40-484b-ed11-aac0-0afb9334277d,ea3e9fa2-5a64-431c-be25-3ff532f0445f,,2022-10-13T18:39:29-04:00,43.759582493808928,-79.214791661357353,6.2422752588708619,2022-10-13T22:42:07Z
4c4ea11d-494b-ed11-aac0-0afb9334277d,bfc23509-915e-4c0a-bbad-8ed6fe3df8f1,2022-10-13T18:42:32-04:00,,43.851304599999999,-79.254657300000005,3141.0450513627179,2022-10-13T22:48:16Z
7b247541-494b-ed11-aac0-0afb9334277d,ea3e9fa2-5a64-431c-be25-3ff532f0445f,2022-10-13T18:41:42-04:00,,43.759172953797545,-79.225223433262499,168.66666666666666,2022-10-13T22:49:16Z
f7ec2a83-494b-ed11-aac0-0afb9334277d,bf670311-c590-473a-98ab-d719ebf0f2ab,2022-10-13T18:34:25-04:00,2022-10-13T18:41:45-04:00,43.665620687508081,-79.734348374387551,82,2022-10-13T22:51:06Z
7d3171eb-494b-ed11-aac0-0afb9334277d,bf670311-c590-473a-98ab-d719ebf0f2ab,2022-10-13T18:49:27-04:00,,43.686963217486806,-79.762454462565515,79.506006138473126,2022-10-13T22:54:05Z
a9f0d16f-4c4b-ed11-aac0-0afb9334277d,ed16354a-961a-4e5e-83de-ce9a17b25a2f,2022-10-13T19:07:24-04:00,,43.773855959411755,-79.249362309081377,39,2022-10-13T23:12:06Z
852a4de7-4c4b-ed11-aac0-0afb9334277d,3bb57dd9-1d69-471c-b769-b3323748bb9f,2022-10-13T18:36:48-04:00,2022-10-13T19:11:02-04:00,43.709051182196319,-79.269534424210931,117.08715315433523,2022-10-13T23:15:27Z
b18135f9-4c4b-ed11-aac0-0afb9334277d,bf670311-c590-473a-98ab-d719ebf0f2ab,2022-10-13T18:49:27-04:00,2022-10-13T19:14:12-04:00,43.686748593084538,-79.762216294404197,61.799515800040702,2022-10-13T23:15:58Z
7e7c2fff-4c4b-ed11-aac0-0afb9334277d,3bb57dd9-1d69-471c-b769-b3323748bb9f,2022-10-13T19:11:18-04:00,,43.710445917846506,-79.273670380427347,35,2022-10-13T23:16:06Z
504325a7-4d4b-ed11-aac0-0afb9334277d,c62ae7a2-6fe6-4fd5-9b9e-93773b08d8b9,2022-10-13T19:02:30-04:00,,43.782746307213529,-79.184334783129117,88.78951168417926,2022-10-13T23:20:46Z
0c98df88-4f4b-ed11-aac0-0afb9334277d,bf670311-c590-473a-98ab-d719ebf0f2ab,2022-10-13T19:32:26-04:00,,43.729109948545698,-79.714528998995902,78,2022-10-13T23:34:13Z
45304b01-5d4b-ed11-aac0-0afb9334277d,ea3e9fa2-5a64-431c-be25-3ff532f0445f,2022-10-13T18:41:42-04:00,2022-10-13T21:07:50-04:00,43.759154057842998,-79.225087468400176,27.47461271470636,2022-10-14T01:10:36Z
e37b4407-5d4b-ed11-aac0-0afb9334277d,ea3e9fa2-5a64-431c-be25-3ff532f0445f,2022-10-13T21:09:41-04:00,,43.759650410645989,-79.214913794493256,20,2022-10-14T01:10:47Z
b6f5d0ba-5d4b-ed11-aac0-0afb9334277d,6b827de8-fe47-4007-aad3-202655b954e3,2022-10-13T16:02:45-04:00,2022-10-13T21:14:30-04:00,43.756901672846205,-79.313731028888057,47.433785024150538,2022-10-14T01:15:47Z
51a51380-5e4b-ed11-aac0-0afb9334277d,852b45ca-f506-42b2-b5bd-2b0072b1b28b,2022-10-13T16:48:04-04:00,2022-10-13T21:20:11-04:00,43.918383312248416,-78.949125909106087,28.899961575280916,2022-10-14T01:21:23Z
86d35a8d-5f4b-ed11-aac0-0afb9334277d,6b827de8-fe47-4007-aad3-202655b954e3,2022-10-13T21:26:33-04:00,,43.79462464381777,-79.315088714567267,40,2022-10-14T01:28:58Z
dfa9e8f8-5f4b-ed11-aac0-0afb9334277d,852b45ca-f506-42b2-b5bd-2b0072b1b28b,2022-10-13T21:30:30-04:00,,43.938546516478233,-78.888117756077136,17.179382536568507,2022-10-14T01:31:53Z
f8fbfe7d-6c4b-ed11-aac0-0afb9334277d,329e2c06-a903-44ce-a409-8ed8c580b124,2022-10-13T17:16:46-04:00,2022-10-13T22:56:53-04:00,43.777865837680068,-79.230868143998478,24.410172972700462,2022-10-14T03:01:28Z
c0949107-6e4b-ed11-aac0-0afb9334277d,329e2c06-a903-44ce-a409-8ed8c580b124,2022-10-13T22:56:57-04:00,,43.779138747544238,-79.230929793958225,110.63855639531735,2022-10-14T03:12:29Z
237938f8-a24b-ed11-aac0-0afb9334277d,4217d9ff-07c0-42a5-9da9-f2e351b40709,2022-10-14T05:29:49-04:00,,44.148695021651655,-78.723308540956651,35,2022-10-14T09:31:34Z
484060fd-274b-ed11-aac0-0afb9334277d,6d9ce034-4fcd-407e-9e35-9dd9caafe1fe,2022-10-13T14:50:03-04:00,,43.918166366324904,-78.950303899881888,4.7279959241767502,2022-10-13T18:51:10Z
defb0cb5-2c4b-ed11-aac0-0afb9334277d,3223b573-6de0-4aeb-b005-dd2e467b1e62,2022-10-13T15:20:16-04:00,,43.782694595764674,-79.18529632831374,49.209477306539803,2022-10-13T19:24:52Z
5c128a11-2f4b-ed11-aac0-0afb9334277d,76acef3c-d659-4fdd-b258-3668a1597584,2022-10-13T15:23:26-04:00,,43.786434296373706,-79.305470204770458,3885.9300204198839,2022-10-13T19:41:55Z
50cbceb0-354b-ed11-aac0-0afb9334277d,76acef3c-d659-4fdd-b258-3668a1597584,2022-10-13T15:23:26-04:00,2022-10-13T16:05:21-04:00,43.784562211797386,-79.30290199189092,3885.9300204198839,2022-10-13T20:29:19Z
3c2e6681-404b-ed11-aac0-0afb9334277d,98cb45a7-4057-4e81-b1d7-e7aede5e106e,2022-10-13T17:39:50-04:00,2022-10-13T17:45:32-04:00,43.835681427426138,-79.255039273294301,5.758456269088815,2022-10-13T21:46:37Z
946e6bfb-0f4b-ed11-aac0-0afb9334277d,98cb45a7-4057-4e81-b1d7-e7aede5e106e,,2022-10-13T11:54:56-04:00,43.784751637386513,-79.186768893040821,65.571581578477037,2022-10-13T15:59:18Z
be9d6201-104b-ed11-aac0-0afb9334277d,98cb45a7-4057-4e81-b1d7-e7aede5e106e,2022-10-13T11:54:57-04:00,,43.786793568494765,-79.187295497363962,5.0862934113010674,2022-10-13T15:59:27Z
609824ac-134b-ed11-aac0-0afb9334277d,98cb45a7-4057-4e81-b1d7-e7aede5e106e,2022-10-13T12:25:06-04:00,,43.832815352373011,-79.091744639614561,18.243171657554313,2022-10-13T16:25:40Z
9e0d5f80-194b-ed11-aac0-0afb9334277d,76acef3c-d659-4fdd-b258-3668a1597584,2022-10-12T21:33:06-04:00,2022-10-13T13:03:04-04:00,43.789531953171199,-79.207455676340643,3662.6970391559107,2022-10-13T17:07:30Z
d42f9039-1f4b-ed11-aac0-0afb9334277d,76acef3c-d659-4fdd-b258-3668a1597584,2022-10-13T13:30:31-04:00,,43.8240227,-79.318075199999996,5111.8072925234346,2022-10-13T17:48:23Z
d98eddf5-214b-ed11-aac0-0afb9334277d,3223b573-6de0-4aeb-b005-dd2e467b1e62,2022-10-13T14:01:54-04:00,,43.789909205550217,-79.193836493453929,98.040777444600934,2022-10-13T18:08:04Z
78f44e23-2a4b-ed11-aac0-0afb9334277d,76acef3c-d659-4fdd-b258-3668a1597584,2022-10-13T13:30:31-04:00,2022-10-13T15:02:16-04:00,43.8240227,-79.318075199999996,5111.8072925234346,2022-10-13T19:06:35Z
536c83ca-2a4b-ed11-aac0-0afb9334277d,3223b573-6de0-4aeb-b005-dd2e467b1e62,2022-10-13T14:01:54-04:00,2022-10-13T15:08:40-04:00,43.790015143718307,-79.193834373917795,61.646366804969666,2022-10-13T19:11:13Z
fc2cfdad-2b4b-ed11-aac0-0afb9334277d,3223b573-6de0-4aeb-b005-dd2e467b1e62,2022-10-13T15:11:44-04:00,,43.784611767041078,-79.187062397575374,48.007249642085263,2022-10-13T19:17:39Z
5b33d925-374b-ed11-aac0-0afb9334277d,76acef3c-d659-4fdd-b258-3668a1597584,2022-10-13T16:23:19-04:00,,43.807932200000003,-79.266566600000004,4732.5826456715095,2022-10-13T20:39:40Z
bb9a9e5b-374b-ed11-aac0-0afb9334277d,98cb45a7-4057-4e81-b1d7-e7aede5e106e,2022-10-13T12:25:06-04:00,2022-10-13T16:38:40-04:00,43.832563610551567,-79.091736508009248,15.107626568550547,2022-10-13T20:41:12Z
2b229fdc-3d4b-ed11-aac0-0afb9334277d,76acef3c-d659-4fdd-b258-3668a1597584,2022-10-13T16:43:01-04:00,2022-10-13T17:22:51-04:00,43.807932200000003,-79.266566600000004,4732.5826456715095,2022-10-13T21:27:47Z
01b8cd27-404b-ed11-aac0-0afb9334277d,98cb45a7-4057-4e81-b1d7-e7aede5e106e,2022-10-13T17:39:50-04:00,,43.834602839305248,-79.256788632778509,6.2111259802910386,2022-10-13T21:44:11Z
2c79d1fd-434b-ed11-aac0-0afb9334277d,76acef3c-d659-4fdd-b258-3668a1597584,2022-10-13T17:55:36-04:00,,43.790188980542318,-79.208016732687156,3662.6970391559107,2022-10-13T22:11:39Z
cad9e9bc-444b-ed11-aac0-0afb9334277d,98cb45a7-4057-4e81-b1d7-e7aede5e106e,2022-10-13T18:12:26-04:00,,43.85789308982033,-79.080082775748238,5.9343908365396247,2022-10-13T22:16:57Z
f4415e94-454b-ed11-aac0-0afb9334277d,98cb45a7-4057-4e81-b1d7-e7aede5e106e,2022-10-13T18:18:33-04:00,,43.855850823161646,-79.079783281193343,5.1001844995165824,2022-10-13T22:22:57Z
80f30d88-514b-ed11-aac0-0afb9334277d,a01397bb-a8a5-4cd1-af6f-6ace410f125d,2022-10-12T20:40:18-04:00,2022-10-13T19:44:24-04:00,43.889851058444911,-79.285899515058944,11.01284816669126,2022-10-13T23:48:31Z
2fe067d0-564b-ed11-aac0-0afb9334277d,a01397bb-a8a5-4cd1-af6f-6ace410f125d,2022-10-13T20:14:46-04:00,2022-10-13T20:24:04-04:00,43.798930590718719,-79.195996405574277,27.954178859991618,2022-10-14T00:26:23Z
6d6c7d61-5a4b-ed11-aac0-0afb9334277d,a01397bb-a8a5-4cd1-af6f-6ace410f125d,2022-10-13T20:51:02-04:00,,43.889949531764117,-79.285818651973457,10,2022-10-14T00:51:52Z
257597f0-654b-ed11-aac0-0afb9334277d,6d9ce034-4fcd-407e-9e35-9dd9caafe1fe,2022-10-13T14:50:03-04:00,2022-10-13T22:13:03-04:00,43.918158007987849,-78.950319567284225,33.804548941987598,2022-10-14T02:14:37Z
08ef308c-674b-ed11-aac0-0afb9334277d,6d9ce034-4fcd-407e-9e35-9dd9caafe1fe,2022-10-13T22:24:18-04:00,,43.886408473168956,-78.897577655325449,19.649683456171257,2022-10-14T02:26:10Z
b6c40849-104b-ed11-aac0-0afb9334277d,2f32cd19-e9c5-4aad-8999-6f4646169ab6,2022-10-13T11:56:38-04:00,,43.784729011794788,-79.186198302003973,35,2022-10-13T16:01:33Z
93db67d0-564b-ed11-aac0-0afb9334277d,2f32cd19-e9c5-4aad-8999-6f4646169ab6,2022-10-13T20:25:33-04:00,,44.385358011512125,-79.762229118156966,31,2022-10-14T00:26:20Z
3ea34f4f-694b-ed11-aac0-0afb9334277d,deaf9ec8-984d-41bb-aab6-ef213452c297,2022-10-13T22:30:55-04:00,2022-10-13T22:37:10-04:00,43.895317078312019,-79.029220580745005,75,2022-10-14T02:38:50Z
1b950054-074b-ed11-aac0-0afb9334277d,2f32cd19-e9c5-4aad-8999-6f4646169ab6,2022-10-12T18:12:59-04:00,2022-10-13T10:56:15-04:00,43.962551600517571,-79.231387983029521,13.14065497208469,2022-10-13T14:57:24Z
2e88fed7-0d4b-ed11-aac0-0afb9334277d,2f32cd19-e9c5-4aad-8999-6f4646169ab6,2022-10-13T11:43:25-04:00,,43.78817198050421,-79.189986919623408,4.8264302106807273,2022-10-13T15:43:59Z
eea11043-104b-ed11-aac0-0afb9334277d,2f32cd19-e9c5-4aad-8999-6f4646169ab6,2022-10-13T11:43:25-04:00,2022-10-13T11:55:53-04:00,43.787047131915806,-79.188748418001992,72.782546245824207,2022-10-13T16:01:17Z
17bf4406-2b4b-ed11-aac0-0afb9334277d,01801252-3a7e-4f5f-8b6d-49e8da3902f3,2022-10-13T12:07:47-07:00,,49.254749323023844,-123.23677828704619,35,2022-10-13T19:12:56Z
b3603180-2d4b-ed11-aac0-0afb9334277d,01801252-3a7e-4f5f-8b6d-49e8da3902f3,2022-10-13T12:07:47-07:00,2022-10-13T12:28:40-07:00,49.254500187243629,-123.23607357898152,77.235046918070751,2022-10-13T19:30:39Z
b4dc2786-2d4b-ed11-aac0-0afb9334277d,01801252-3a7e-4f5f-8b6d-49e8da3902f3,2022-10-13T12:30:06-07:00,,49.253482706646054,-123.23341815590794,39.604798699362959,2022-10-13T19:30:49Z
2c3295c3-2e4b-ed11-aac0-0afb9334277d,2f32cd19-e9c5-4aad-8999-6f4646169ab6,2022-10-13T11:56:38-04:00,2022-10-13T15:35:09-04:00,43.784636660147171,-79.186240913940665,61.127169177317178,2022-10-13T19:39:38Z
e0b38cc9-2e4b-ed11-aac0-0afb9334277d,2f32cd19-e9c5-4aad-8999-6f4646169ab6,2022-10-13T15:39:19-04:00,,43.787044581109548,-79.188586772182063,103.82410368389202,2022-10-13T19:39:48Z
80011783-2f4b-ed11-aac0-0afb9334277d,2f32cd19-e9c5-4aad-8999-6f4646169ab6,2022-10-13T15:39:19-04:00,2022-10-13T15:44:05-04:00,43.78903148676627,-79.189667193642634,4.8699479773671923,2022-10-13T19:44:56Z
b6d92ed8-3e4b-ed11-aac0-0afb9334277d,2f32cd19-e9c5-4aad-8999-6f4646169ab6,2022-10-13T17:30:23-04:00,,44.409745387536191,-79.710595304876065,4.6730969056482365,2022-10-13T21:34:48Z
cb86b53f-404b-ed11-aac0-0afb9334277d,2f32cd19-e9c5-4aad-8999-6f4646169ab6,2022-10-13T17:30:23-04:00,2022-10-13T17:43:31-04:00,44.409738348950398,-79.70994441799661,108.17547972981465,2022-10-13T21:44:44Z
b312c664-414b-ed11-aac0-0afb9334277d,2f32cd19-e9c5-4aad-8999-6f4646169ab6,2022-10-13T17:50:53-04:00,,44.385081073605903,-79.762202526847119,12.931830251770416,2022-10-13T21:53:04Z
b895323b-4f4b-ed11-aac0-0afb9334277d,2f32cd19-e9c5-4aad-8999-6f4646169ab6,2022-10-13T17:50:53-04:00,2022-10-13T19:23:28-04:00,44.385042585103236,-79.762274821710051,22.116676739106424,2022-10-13T23:32:03Z
9487a57d-524b-ed11-aac0-0afb9334277d,2f32cd19-e9c5-4aad-8999-6f4646169ab6,2022-10-13T19:36:39-04:00,,44.328687639426406,-79.685319965275951,50.821733902935549,2022-10-13T23:55:28Z
64e6b6bc-544b-ed11-aac0-0afb9334277d,2f32cd19-e9c5-4aad-8999-6f4646169ab6,2022-10-13T19:36:39-04:00,2022-10-13T20:08:13-04:00,44.328709416105816,-79.685288580432939,39.520940056118945,2022-10-14T00:11:28Z
e86d6d0c-594b-ed11-aac0-0afb9334277d,01801252-3a7e-4f5f-8b6d-49e8da3902f3,2022-10-13T12:30:06-07:00,2022-10-13T17:39:59-07:00,49.253575802955986,-123.23393391679602,36.672051425502232,2022-10-14T00:42:23Z
25aa688a-594b-ed11-aac0-0afb9334277d,01801252-3a7e-4f5f-8b6d-49e8da3902f3,2022-10-13T17:40:00-07:00,,49.253799317044816,-123.23809956322563,35,2022-10-14T00:45:50Z
86b293a4-5b4b-ed11-aac0-0afb9334277d,01801252-3a7e-4f5f-8b6d-49e8da3902f3,2022-10-13T17:40:00-07:00,2022-10-13T17:59:18-07:00,49.253638328907371,-123.23717324859001,82.314509214628202,2022-10-14T01:00:55Z
a9e08baa-5b4b-ed11-aac0-0afb9334277d,01801252-3a7e-4f5f-8b6d-49e8da3902f3,2022-10-13T18:00:34-07:00,,49.253432800085875,-123.23417319227171,35,2022-10-14T01:01:05Z
84a74454-684b-ed11-aac0-0afb9334277d,deaf9ec8-984d-41bb-aab6-ef213452c297,2022-10-11T22:46:09-04:00,2022-10-13T22:29:48-04:00,43.890568598584821,-79.025912061414729,10.412433043024871,2022-10-14T02:31:45Z
c1c7dddd-684b-ed11-aac0-0afb9334277d,deaf9ec8-984d-41bb-aab6-ef213452c297,2022-10-13T22:30:55-04:00,,43.897155821895105,-79.029767836649029,35,2022-10-14T02:35:32Z
4b902beb-694b-ed11-aac0-0afb9334277d,deaf9ec8-984d-41bb-aab6-ef213452c297,2022-10-13T22:37:53-04:00,,43.890544984690486,-79.02591710002612,51.333333333333336,2022-10-14T02:43:05Z
