AppleLocationVisitKey,ParticipantIdentifier,ArrivalTime,DepartureTime,Latitude,Longitude,HorizontalAccuracy,InsertedDate
3cfde409-aa49-ed11-aac0-0afb9334277d,2f32cd19-e9c5-4aad-8999-6f4646169ab6,2022-10-10T21:22:12-04:00,2022-10-11T17:15:38-04:00,43.962539953498435,-79.231383996439064,10.28001232769626,2022-10-11T21:17:06Z
19a6a453-c749-ed11-aac0-0afb9334277d,2f32cd19-e9c5-4aad-8999-6f4646169ab6,2022-10-11T19:46:36-04:00,2022-10-11T20:40:54-04:00,43.965321876312998,-79.270661250746599,22.772685237639664,2022-10-12T00:46:47Z
87c5c78d-bf49-ed11-aac0-0afb9334277d,2f32cd19-e9c5-4aad-8999-6f4646169ab6,2022-10-11T19:46:36-04:00,,43.965323589052652,-79.270687185287542,35,2022-10-11T23:51:04Z
7c9b6ed4-bd49-ed11-aac0-0afb9334277d,2f32cd19-e9c5-4aad-8999-6f4646169ab6,2022-10-11T18:24:44-04:00,2022-10-11T19:36:03-04:00,44.012654538774534,-79.242116171933958,24.760218292063129,2022-10-11T23:38:39Z
b23b841c-b449-ed11-aac0-0afb9334277d,2f32cd19-e9c5-4aad-8999-6f4646169ab6,2022-10-11T18:24:44-04:00,,44.012681698600382,-79.242113657754913,12.065715399691163,2022-10-11T22:29:05Z
1585af03-af49-ed11-aac0-0afb9334277d,2f32cd19-e9c5-4aad-8999-6f4646169ab6,2022-10-11T17:21:47-04:00,2022-10-11T17:51:56-04:00,43.95639305246322,-79.274683939540182,59.372283023325707,2022-10-11T21:52:38Z
c44dd258-ab49-ed11-aac0-0afb9334277d,2f32cd19-e9c5-4aad-8999-6f4646169ab6,2022-10-11T17:21:47-04:00,,43.955592893322354,-79.275131697212274,37,2022-10-11T21:26:23Z
3a4b8876-8749-ed11-aac0-0afb9334277d,c62ae7a2-6fe6-4fd5-9b9e-93773b08d8b9,2022-10-11T12:53:14-04:00,,43.782587405272672,-79.183623936340695,86.598645450982275,2022-10-11T17:09:30Z
f8354459-b549-ed11-aac0-0afb9334277d,837ea159-60c6-4bde-b3ba-2c107844a9bb,,2022-10-11T18:36:58-04:00,43.838139982360225,-79.104855681301586,15.244448345011222,2022-10-11T22:37:57Z
8e4a3e93-d049-ed11-aac0-0afb9334277d,2f32cd19-e9c5-4aad-8999-6f4646169ab6,2022-10-11T21:51:19-04:00,,44.012959535361261,-79.241829008574669,52,2022-10-12T01:52:56Z
358ae37b-e649-ed11-aac0-0afb9334277d,2f32cd19-e9c5-4aad-8999-6f4646169ab6,2022-10-11T21:51:19-04:00,2022-10-12T00:28:51-04:00,44.012686075467116,-79.241905830309364,56.603101074333217,2022-10-12T04:29:44Z
f9440375-8149-ed11-aac0-0afb9334277d,c62ae7a2-6fe6-4fd5-9b9e-93773b08d8b9,2022-10-10T17:53:23-04:00,2022-10-11T12:22:13-04:00,43.7825209194691,-79.183495386281962,15.224174699153572,2022-10-11T16:26:32Z
412cc1d0-8349-ed11-aac0-0afb9334277d,c62ae7a2-6fe6-4fd5-9b9e-93773b08d8b9,2022-10-11T12:23:39-04:00,,43.783616524950212,-79.186687233801564,67.515781525281341,2022-10-11T16:43:23Z
860943c8-8549-ed11-aac0-0afb9334277d,c62ae7a2-6fe6-4fd5-9b9e-93773b08d8b9,2022-10-11T12:23:39-04:00,2022-10-11T12:52:17-04:00,43.783647044299698,-79.186689817966098,69.240539085484556,2022-10-11T16:57:26Z
c641de11-8849-ed11-aac0-0afb9334277d,c62ae7a2-6fe6-4fd5-9b9e-93773b08d8b9,2022-10-11T12:53:14-04:00,2022-10-11T13:08:33-04:00,43.782587405272672,-79.183623936340695,86.598645450982275,2022-10-11T17:13:55Z
dd17e5c9-8a49-ed11-aac0-0afb9334277d,c62ae7a2-6fe6-4fd5-9b9e-93773b08d8b9,2022-10-11T13:17:23-04:00,,43.789226160117913,-79.193976201966407,112.35604126430431,2022-10-11T17:33:17Z
097d5465-8b49-ed11-aac0-0afb9334277d,c62ae7a2-6fe6-4fd5-9b9e-93773b08d8b9,2022-10-11T13:17:23-04:00,2022-10-11T13:33:18-04:00,43.789202564785796,-79.193955013461277,112.21694443563052,2022-10-11T17:37:39Z
505a7dcd-8d49-ed11-aac0-0afb9334277d,c62ae7a2-6fe6-4fd5-9b9e-93773b08d8b9,2022-10-11T13:39:33-04:00,,43.782812263802889,-79.183849315933628,90.853932046986827,2022-10-11T17:54:54Z
8ce144b5-ab49-ed11-aac0-0afb9334277d,c62ae7a2-6fe6-4fd5-9b9e-93773b08d8b9,2022-10-11T13:39:33-04:00,2022-10-11T17:23:20-04:00,43.782816360648141,-79.183923022344899,83.412231516136956,2022-10-11T21:29:01Z
9d45951b-af49-ed11-aac0-0afb9334277d,c62ae7a2-6fe6-4fd5-9b9e-93773b08d8b9,2022-10-11T17:34:04-04:00,,43.782654801701241,-79.183869496480369,49.393023080036897,2022-10-11T21:53:16Z
1fc264eb-b749-ed11-aac0-0afb9334277d,837ea159-60c6-4bde-b3ba-2c107844a9bb,2022-10-11T18:41:07-04:00,,43.836596556131823,-79.086772957455437,87.105417675236382,2022-10-11T22:56:24Z
bb35baa4-b849-ed11-aac0-0afb9334277d,837ea159-60c6-4bde-b3ba-2c107844a9bb,2022-10-11T18:41:07-04:00,2022-10-11T18:59:45-04:00,43.836457819170271,-79.08681511333576,96.621399608622141,2022-10-11T23:01:31Z
0f7ec8cb-bb49-ed11-aac0-0afb9334277d,837ea159-60c6-4bde-b3ba-2c107844a9bb,2022-10-11T19:19:07-04:00,,43.838126949334558,-79.104880751793402,87.333333333333329,2022-10-11T23:24:09Z
9f7442bf-c749-ed11-aac0-0afb9334277d,2f32cd19-e9c5-4aad-8999-6f4646169ab6,2022-10-11T20:44:05-04:00,,43.955503072481804,-79.275151912769459,40,2022-10-12T00:49:42Z
91f704e3-cb49-ed11-aac0-0afb9334277d,2f32cd19-e9c5-4aad-8999-6f4646169ab6,2022-10-11T20:44:05-04:00,2022-10-11T21:17:16-04:00,43.955558106294376,-79.275086020060741,70.36608701367382,2022-10-12T01:19:21Z
b3973afc-cc49-ed11-aac0-0afb9334277d,2f32cd19-e9c5-4aad-8999-6f4646169ab6,2022-10-11T21:22:31-04:00,,43.96856453935888,-79.260627714133875,157.17528673711527,2022-10-12T01:27:12Z
a2c2f791-cd49-ed11-aac0-0afb9334277d,2f32cd19-e9c5-4aad-8999-6f4646169ab6,2022-10-11T21:22:31-04:00,2022-10-11T21:28:28-04:00,43.96818263771496,-79.260790798630524,61,2022-10-12T01:31:22Z
d2792945-ce49-ed11-aac0-0afb9334277d,2f32cd19-e9c5-4aad-8999-6f4646169ab6,2022-10-11T21:30:50-04:00,,43.96709048119952,-79.26908601236525,95.301431322006877,2022-10-12T01:36:29Z
b31cddcd-cf49-ed11-aac0-0afb9334277d,2f32cd19-e9c5-4aad-8999-6f4646169ab6,2022-10-11T21:30:50-04:00,2022-10-11T21:42:46-04:00,43.966974514351087,-79.269271100500546,62.206597694687531,2022-10-12T01:47:27Z
c1256e71-e749-ed11-aac0-0afb9334277d,2f32cd19-e9c5-4aad-8999-6f4646169ab6,2022-10-12T00:35:13-04:00,,43.962610279634575,-79.231219702301573,9.812863839560789,2022-10-12T04:36:38Z
b9628c78-9d49-ed11-aac0-0afb9334277d,412330b3-cc02-4030-96cd-f4cfdcc45fa6,2022-10-11T15:12:34-04:00,2022-10-11T15:42:54-04:00,43.812582971757998,-79.303100514132652,93.482821418377853,2022-10-11T19:47:09Z
6711cdf5-a749-ed11-aac0-0afb9334277d,deaf9ec8-984d-41bb-aab6-ef213452c297,2022-10-11T13:23:31-04:00,2022-10-11T16:48:14-04:00,43.897712999964021,-79.006672471980508,21.972668279423345,2022-10-11T21:02:07Z
c1f20e8a-d449-ed11-aac0-0afb9334277d,deaf9ec8-984d-41bb-aab6-ef213452c297,2022-10-11T18:24:15-04:00,2022-10-11T22:20:24-04:00,43.890561762551258,-79.025928209925539,19.831274974814498,2022-10-12T02:21:21Z
9134387f-d549-ed11-aac0-0afb9334277d,deaf9ec8-984d-41bb-aab6-ef213452c297,2022-10-11T22:21:10-04:00,2022-10-11T22:26:45-04:00,43.897730950307007,-79.030727120189951,5.1580932242703694,2022-10-12T02:28:13Z
985a6971-8849-ed11-aac0-0afb9334277d,deaf9ec8-984d-41bb-aab6-ef213452c297,2022-10-10T21:25:35-04:00,2022-10-11T13:13:24-04:00,43.890569984108268,-79.025912301071173,11.930712861649869,2022-10-11T17:16:37Z
b77e5046-8f49-ed11-aac0-0afb9334277d,412330b3-cc02-4030-96cd-f4cfdcc45fa6,2022-10-11T14:00:10-04:00,,43.790459484784485,-79.284863632298865,40,2022-10-11T18:05:32Z
60f8a300-9149-ed11-aac0-0afb9334277d,412330b3-cc02-4030-96cd-f4cfdcc45fa6,2022-10-11T14:00:10-04:00,2022-10-11T14:15:12-04:00,43.790788357786631,-79.285186023935793,80.150260742686839,2022-10-11T18:17:51Z
c4fdd231-9449-ed11-aac0-0afb9334277d,412330b3-cc02-4030-96cd-f4cfdcc45fa6,2022-10-11T14:23:28-04:00,,43.808236990265932,-79.269223579798307,94.739301998247043,2022-10-11T18:40:38Z
8e2bc306-9849-ed11-aac0-0afb9334277d,412330b3-cc02-4030-96cd-f4cfdcc45fa6,2022-10-11T14:23:28-04:00,2022-10-11T15:03:06-04:00,43.808425569772304,-79.268665525711214,88.203424833499213,2022-10-11T19:08:12Z
d4ca1bd3-9949-ed11-aac0-0afb9334277d,412330b3-cc02-4030-96cd-f4cfdcc45fa6,2022-10-11T15:12:34-04:00,,43.812458617981122,-79.302612750068661,67,2022-10-11T19:20:54Z
3bfab74a-a949-ed11-aac0-0afb9334277d,deaf9ec8-984d-41bb-aab6-ef213452c297,2022-10-11T17:01:35-04:00,,43.897227314451371,-79.008461200018303,83.047259001018503,2022-10-11T21:11:45Z
b1cdca09-b349-ed11-aac0-0afb9334277d,deaf9ec8-984d-41bb-aab6-ef213452c297,2022-10-11T17:01:35-04:00,2022-10-11T18:19:58-04:00,43.897399878904274,-79.007407442451367,72.729183394811159,2022-10-11T22:21:28Z
519bcde0-b349-ed11-aac0-0afb9334277d,deaf9ec8-984d-41bb-aab6-ef213452c297,2022-10-11T18:24:15-04:00,,43.89055155065958,-79.026337764499971,45,2022-10-11T22:27:32Z
a67b8a37-d549-ed11-aac0-0afb9334277d,deaf9ec8-984d-41bb-aab6-ef213452c297,2022-10-11T22:21:10-04:00,,43.897667338413498,-79.029744743013438,59.856355186899997,2022-10-12T02:26:05Z
7cd342bc-d649-ed11-aac0-0afb9334277d,deaf9ec8-984d-41bb-aab6-ef213452c297,2022-10-11T22:32:41-04:00,,43.892146947224134,-79.052541002594239,4.7395122255622582,2022-10-12T02:37:04Z
7ff26de7-d749-ed11-aac0-0afb9334277d,deaf9ec8-984d-41bb-aab6-ef213452c297,2022-10-11T22:32:41-04:00,2022-10-11T22:42:25-04:00,43.892185131172511,-79.052585718546183,28.097637597024345,2022-10-12T02:45:20Z
1d4d3f1d-d849-ed11-aac0-0afb9334277d,deaf9ec8-984d-41bb-aab6-ef213452c297,2022-10-11T22:45:20-04:00,,43.890591163773514,-79.026221743648492,31,2022-10-12T02:46:55Z
248ca466-7a49-ed11-aac0-0afb9334277d,1e7aef96-16cc-43f8-95d4-e3bc582eb6d3,2022-10-11T11:26:42-04:00,,43.71810099745705,-79.720287100166431,68.290472033101722,2022-10-11T15:35:58Z
1bb75340-9249-ed11-aac0-0afb9334277d,fa996c7b-fd1c-4cba-990a-336f4cefaeb4,2022-10-11T14:26:14-04:00,,43.791806172061115,-79.246635522244333,35,2022-10-11T18:26:49Z
f2af072c-9e49-ed11-aac0-0afb9334277d,0ca43379-41b5-47fb-90ba-0a22e6bf5586,2022-10-11T13:11:09-04:00,2022-10-11T15:47:17-04:00,43.660468965145725,-79.332167123201543,30.583741530031844,2022-10-11T19:52:05Z
0fd4fc34-9f49-ed11-aac0-0afb9334277d,1e7aef96-16cc-43f8-95d4-e3bc582eb6d3,2022-10-11T15:41:22-04:00,,43.665334181644774,-79.39316161353014,106.75100077711411,2022-10-11T19:59:36Z
9a7824c8-a949-ed11-aac0-0afb9334277d,fa996c7b-fd1c-4cba-990a-336f4cefaeb4,2022-10-11T17:07:17-04:00,2022-10-11T17:13:26-04:00,43.790443234083803,-79.248239974733679,43,2022-10-11T21:15:15Z
5cc30aee-ae49-ed11-aac0-0afb9334277d,3223b573-6de0-4aeb-b005-dd2e467b1e62,2022-10-11T17:47:07-04:00,,43.784971619341384,-79.186934935992184,35,2022-10-11T21:52:00Z
9419b392-c349-ed11-aac0-0afb9334277d,ea3d6bc5-1a3b-4542-a06a-6c6c9328e0fa,2022-10-11T20:18:33-04:00,,43.795199578623894,-79.289024207498159,35,2022-10-12T00:19:53Z
215fd329-c749-ed11-aac0-0afb9334277d,a01397bb-a8a5-4cd1-af6f-6ace410f125d,2022-10-11T20:40:02-04:00,,43.798921312935597,-79.196758393785004,35,2022-10-12T00:45:31Z
9e889bf0-d849-ed11-aac0-0afb9334277d,3223b573-6de0-4aeb-b005-dd2e467b1e62,2022-10-11T17:47:18-04:00,,43.782779175774508,-79.185440023718982,91.003747267718808,2022-10-12T02:52:51Z
25ce3b9c-de49-ed11-aac0-0afb9334277d,5e0ae9ff-7cb8-499d-bee1-b1226869c14e,2022-10-11T21:23:07-04:00,2022-10-11T23:31:38-04:00,43.740530331847147,-79.217271410072129,78.520684346824027,2022-10-12T03:33:23Z
faef4a2d-e049-ed11-aac0-0afb9334277d,5e0ae9ff-7cb8-499d-bee1-b1226869c14e,2022-10-11T23:36:09-04:00,2022-10-11T23:42:35-04:00,43.769493724021714,-79.187705357489236,52.331137599999998,2022-10-12T03:44:32Z
12a1f0e0-e049-ed11-aac0-0afb9334277d,5e0ae9ff-7cb8-499d-bee1-b1226869c14e,2022-10-11T23:43:47-04:00,,43.774903239672241,-79.178415819595941,45.752000000000002,2022-10-12T03:49:34Z
9bb8032d-e549-ed11-aac0-0afb9334277d,5e0ae9ff-7cb8-499d-bee1-b1226869c14e,2022-10-12T00:15:48-04:00,,43.888045409240327,-78.933747297712728,35,2022-10-12T04:20:26Z
9cb8032d-e549-ed11-aac0-0afb9334277d,5e0ae9ff-7cb8-499d-bee1-b1226869c14e,2022-10-11T23:43:47-04:00,2022-10-11T23:56:01-04:00,43.774992473708529,-79.178506643645221,35.496629219290412,2022-10-12T04:20:26Z
cfe4108c-6e49-ed11-aac0-0afb9334277d,64755242-4b1b-4ed6-86d3-4f48d695beab,2022-10-11T10:05:30-04:00,,43.659574997058108,-79.763970095237468,27,2022-10-11T14:11:13Z
d626cec8-7749-ed11-aac0-0afb9334277d,1e7aef96-16cc-43f8-95d4-e3bc582eb6d3,2022-10-11T11:12:46-04:00,,43.711323228946064,-79.722804661081597,156.71398905265758,2022-10-11T15:17:15Z
f253a104-7849-ed11-aac0-0afb9334277d,90592e06-bcf6-4150-85b0-c5daf7e7569c,2022-10-11T10:03:06-04:00,2022-10-11T11:17:44-04:00,43.83275307642559,-79.328835857013274,41.669282668069911,2022-10-11T15:18:58Z
b7cd7547-7949-ed11-aac0-0afb9334277d,90592e06-bcf6-4150-85b0-c5daf7e7569c,2022-10-11T11:25:53-04:00,,43.796682884401001,-79.323085145539039,35,2022-10-11T15:27:57Z
a8a67358-7d49-ed11-aac0-0afb9334277d,90592e06-bcf6-4150-85b0-c5daf7e7569c,2022-10-11T11:36:12-04:00,2022-10-11T11:51:38-04:00,43.797768065660115,-79.318534243259606,86.941404395684231,2022-10-11T15:57:03Z
a9a67358-7d49-ed11-aac0-0afb9334277d,90592e06-bcf6-4150-85b0-c5daf7e7569c,2022-10-11T11:25:53-04:00,2022-10-11T11:35:22-04:00,43.796776532574214,-79.321995466142226,113.3303809436094,2022-10-11T15:57:03Z
aaa67358-7d49-ed11-aac0-0afb9334277d,90592e06-bcf6-4150-85b0-c5daf7e7569c,2022-10-11T11:36:12-04:00,,43.797921939067763,-79.318271064775033,44,2022-10-11T15:57:03Z
92db7d64-7d49-ed11-aac0-0afb9334277d,90592e06-bcf6-4150-85b0-c5daf7e7569c,2022-10-11T11:53:11-04:00,,43.796814355552989,-79.323085339420373,35,2022-10-11T15:57:32Z
5936ab35-7e49-ed11-aac0-0afb9334277d,fa996c7b-fd1c-4cba-990a-336f4cefaeb4,2022-10-10T15:51:57-04:00,2022-10-11T12:01:36-04:00,43.791927532112496,-79.246832876583468,9.6091575381004137,2022-10-11T16:03:18Z
8937bdc3-8249-ed11-aac0-0afb9334277d,fa996c7b-fd1c-4cba-990a-336f4cefaeb4,2022-10-11T12:31:15-04:00,,43.639292390378941,-79.417364675127132,40,2022-10-11T16:35:50Z
80bdb313-8549-ed11-aac0-0afb9334277d,1e7aef96-16cc-43f8-95d4-e3bc582eb6d3,2022-10-11T12:47:22-04:00,,43.667806267336374,-79.398001815203372,60,2022-10-11T16:52:32Z
c4666698-8549-ed11-aac0-0afb9334277d,7272fab8-c4e7-45bb-ba42-e9f6a06801c0,2022-10-10T16:14:08-04:00,2022-10-11T12:51:13-04:00,40.677014327105091,-73.75478396899868,9.3280388397061742,2022-10-11T16:56:10Z
250f1cf3-8649-ed11-aac0-0afb9334277d,0ca43379-41b5-47fb-90ba-0a22e6bf5586,2022-10-10T16:23:53-04:00,2022-10-11T13:00:27-04:00,43.660469656326043,-79.332181819748072,15.97018777362395,2022-10-11T17:05:48Z
8c547048-8949-ed11-aac0-0afb9334277d,a9de00be-460d-4b74-bed3-bf013fe2052a,2022-10-09T15:36:39-04:00,2022-10-11T12:42:52-04:00,43.740642883024186,-79.272554516174011,28.332783195148032,2022-10-11T17:22:37Z
98547048-8949-ed11-aac0-0afb9334277d,a9de00be-460d-4b74-bed3-bf013fe2052a,2022-10-11T13:14:28-04:00,,43.812984460000003,-79.30444335,157.66666666666666,2022-10-11T17:22:37Z
70a649a1-8b49-ed11-aac0-0afb9334277d,7272fab8-c4e7-45bb-ba42-e9f6a06801c0,2022-10-11T13:34:54-04:00,,40.740736490153651,-73.61359974376262,21.767766507464174,2022-10-11T17:39:18Z
8bda05f5-8b49-ed11-aac0-0afb9334277d,fa996c7b-fd1c-4cba-990a-336f4cefaeb4,2022-10-11T12:31:15-04:00,2022-10-11T13:40:37-04:00,43.638929516152075,-79.416751755568583,81.694036330279573,2022-10-11T17:41:44Z
0bc5d5a5-8f49-ed11-aac0-0afb9334277d,1e7aef96-16cc-43f8-95d4-e3bc582eb6d3,2022-10-11T12:47:22-04:00,2022-10-11T14:05:48-04:00,43.668363027457396,-79.398340676486924,74.215803568958535,2022-10-11T18:08:07Z
a8a2ceb7-8f49-ed11-aac0-0afb9334277d,6aef7713-ae07-41bf-a330-b2a94708f8eb,2022-10-11T05:45:54-04:00,2022-10-11T14:04:07-04:00,43.894712949426619,-78.873713171361132,28.163497356307634,2022-10-11T18:08:43Z
d01cc6bd-8f49-ed11-aac0-0afb9334277d,6aef7713-ae07-41bf-a330-b2a94708f8eb,2022-10-11T14:04:17-04:00,,43.891309600159417,-78.872875238514681,4.9446917057891442,2022-10-11T18:08:45Z
28e279f9-8f49-ed11-aac0-0afb9334277d,1e7aef96-16cc-43f8-95d4-e3bc582eb6d3,2022-10-11T14:06:04-04:00,,43.668720039651468,-79.39415854097615,18.143839134011934,2022-10-11T18:10:26Z
7c53e1d0-9049-ed11-aac0-0afb9334277d,6aef7713-ae07-41bf-a330-b2a94708f8eb,2022-10-11T14:04:17-04:00,2022-10-11T14:11:59-04:00,43.889372658422658,-78.872048014979626,4.9156850236665637,2022-10-11T18:16:27Z
147c9a06-9149-ed11-aac0-0afb9334277d,1e7aef96-16cc-43f8-95d4-e3bc582eb6d3,2022-10-11T14:06:04-04:00,2022-10-11T14:14:00-04:00,43.669185450292886,-79.392512502363829,233.5637567183646,2022-10-11T18:18:04Z
d26be3c2-9149-ed11-aac0-0afb9334277d,6aef7713-ae07-41bf-a330-b2a94708f8eb,2022-10-11T14:12:00-04:00,,43.888298315693348,-78.871668111122545,69.881746834747133,2022-10-11T18:23:13Z
f164cdd4-9149-ed11-aac0-0afb9334277d,1e7aef96-16cc-43f8-95d4-e3bc582eb6d3,2022-10-11T14:22:33-04:00,,43.670865371680662,-79.386516887223465,120.12522230097589,2022-10-11T18:23:51Z
efdbaaf8-9149-ed11-aac0-0afb9334277d,6aef7713-ae07-41bf-a330-b2a94708f8eb,2022-10-11T14:12:00-04:00,2022-10-11T14:23:24-04:00,43.888286362163242,-78.87157168272293,71.488379106645908,2022-10-11T18:24:43Z
3bbfd99f-9249-ed11-aac0-0afb9334277d,fa996c7b-fd1c-4cba-990a-336f4cefaeb4,2022-10-11T14:26:14-04:00,2022-10-11T14:28:28-04:00,43.790303049999991,-79.248646866666661,5,2022-10-11T18:29:26Z
fe0d59af-9449-ed11-aac0-0afb9334277d,6aef7713-ae07-41bf-a330-b2a94708f8eb,2022-10-11T14:39:40-04:00,,43.933487616809934,-78.832997224454644,176.00674989847766,2022-10-11T18:44:10Z
bae6b850-9549-ed11-aac0-0afb9334277d,6aef7713-ae07-41bf-a330-b2a94708f8eb,2022-10-11T14:39:40-04:00,2022-10-11T14:44:00-04:00,43.933756678711376,-78.83269501635742,40,2022-10-11T18:48:43Z
75b41746-9649-ed11-aac0-0afb9334277d,6aef7713-ae07-41bf-a330-b2a94708f8eb,2022-10-11T14:51:09-04:00,,43.937845251148467,-78.827754111119049,137.66666666666666,2022-10-11T18:55:33Z
5a29ce8d-9649-ed11-aac0-0afb9334277d,1e7aef96-16cc-43f8-95d4-e3bc582eb6d3,2022-10-11T14:22:33-04:00,2022-10-11T14:26:58-04:00,43.670481671619854,-79.388907132744222,40.471791975710332,2022-10-11T18:57:39Z
45f9b69f-9649-ed11-aac0-0afb9334277d,fa996c7b-fd1c-4cba-990a-336f4cefaeb4,2022-10-11T14:50:05-04:00,,43.723967500000001,-79.283969116666668,5,2022-10-11T18:58:07Z
b9e6f9c4-9749-ed11-aac0-0afb9334277d,a9de00be-460d-4b74-bed3-bf013fe2052a,2022-10-11T13:14:28-04:00,2022-10-11T15:00:01-04:00,43.812849698471638,-79.304855466730231,70.771299070721369,2022-10-11T19:06:21Z
37ad4584-9849-ed11-aac0-0afb9334277d,a9de00be-460d-4b74-bed3-bf013fe2052a,2022-10-11T15:02:15-04:00,,43.818141771903001,-79.304741025243615,55.760312619403948,2022-10-11T19:11:37Z
1942d51a-9a49-ed11-aac0-0afb9334277d,1e7aef96-16cc-43f8-95d4-e3bc582eb6d3,2022-10-11T15:10:11-04:00,,43.6714255196366,-79.387765677550405,70.748272752756137,2022-10-11T19:22:56Z
7a932fe1-9b49-ed11-aac0-0afb9334277d,1e7aef96-16cc-43f8-95d4-e3bc582eb6d3,2022-10-11T15:10:11-04:00,2022-10-11T15:25:03-04:00,43.671536197354584,-79.387883924090218,65.402978906342668,2022-10-11T19:35:42Z
725ac088-9f49-ed11-aac0-0afb9334277d,7272fab8-c4e7-45bb-ba42-e9f6a06801c0,2022-10-11T13:34:54-04:00,2022-10-11T15:57:24-04:00,40.738980651389873,-73.613302248701473,105.09909052166866,2022-10-11T20:01:50Z
8217bf8e-9f49-ed11-aac0-0afb9334277d,7272fab8-c4e7-45bb-ba42-e9f6a06801c0,2022-10-11T15:57:31-04:00,,40.736656886044742,-73.611995974731002,40,2022-10-11T20:01:58Z
894edfad-a049-ed11-aac0-0afb9334277d,a9de00be-460d-4b74-bed3-bf013fe2052a,2022-10-11T15:02:15-04:00,2022-10-11T16:05:47-04:00,43.818073834811905,-79.304635184470115,61.361918329153085,2022-10-11T20:10:07Z
ad25a4dd-a049-ed11-aac0-0afb9334277d,a9de00be-460d-4b74-bed3-bf013fe2052a,2022-10-11T16:06:32-04:00,,43.815944376580937,-79.305458009543386,40,2022-10-11T20:11:20Z
b277a63a-a349-ed11-aac0-0afb9334277d,1e7aef96-16cc-43f8-95d4-e3bc582eb6d3,2022-10-11T15:41:22-04:00,2022-10-11T16:14:39-04:00,43.665003498125316,-79.39296225512247,109.37595957328182,2022-10-11T20:28:22Z
7611dad2-a349-ed11-aac0-0afb9334277d,a9de00be-460d-4b74-bed3-bf013fe2052a,2022-10-11T16:06:32-04:00,2022-10-11T16:31:12-04:00,43.816755131944667,-79.304912260630175,91.462083694322047,2022-10-11T20:32:30Z
eb55273b-a649-ed11-aac0-0afb9334277d,fa996c7b-fd1c-4cba-990a-336f4cefaeb4,2022-10-11T14:50:05-04:00,2022-10-11T16:47:54-04:00,43.724092390712855,-79.28447392867642,83.56608829187482,2022-10-11T20:49:44Z
ea241265-a649-ed11-aac0-0afb9334277d,bbd82a98-a1c9-4229-afc3-cc201067b909,2022-10-11T16:37:34-04:00,2022-10-11T16:44:52-04:00,43.797512284350745,-79.219390882086941,40,2022-10-11T20:50:59Z
2bdc096b-a649-ed11-aac0-0afb9334277d,bbd82a98-a1c9-4229-afc3-cc201067b909,2022-10-11T16:50:14-04:00,,43.798014116828405,-79.221713251160395,40,2022-10-11T20:51:08Z
e124e1e3-a749-ed11-aac0-0afb9334277d,5e0ae9ff-7cb8-499d-bee1-b1226869c14e,2022-10-11T16:56:26-04:00,,43.888240271794849,-78.933799890782154,85,2022-10-11T21:01:43Z
4de83679-a849-ed11-aac0-0afb9334277d,a9de00be-460d-4b74-bed3-bf013fe2052a,2022-10-11T17:02:21-04:00,,43.74040741412152,-79.272820373160314,58.401143864739076,2022-10-11T21:05:46Z
c723f7d2-a849-ed11-aac0-0afb9334277d,fa996c7b-fd1c-4cba-990a-336f4cefaeb4,2022-10-11T17:07:17-04:00,,43.791867896379344,-79.246786363672328,4.9360263429341433,2022-10-11T21:08:23Z
9f3a2fc7-ab49-ed11-aac0-0afb9334277d,7272fab8-c4e7-45bb-ba42-e9f6a06801c0,2022-10-11T17:24:54-04:00,,40.740077182569784,-73.612873266727973,35,2022-10-11T21:29:25Z
aaf27f5d-ad49-ed11-aac0-0afb9334277d,7272fab8-c4e7-45bb-ba42-e9f6a06801c0,2022-10-11T17:24:54-04:00,2022-10-11T17:39:38-04:00,40.740504225749184,-73.613261967152084,106.55479093598029,2022-10-11T21:40:52Z
4b6d38b2-ae49-ed11-aac0-0afb9334277d,3223b573-6de0-4aeb-b005-dd2e467b1e62,2022-10-10T19:28:42-04:00,2022-10-11T17:45:49-04:00,43.782610848576596,-79.185258423020272,31.993112202103383,2022-10-11T21:50:25Z
d82043f7-b049-ed11-aac0-0afb9334277d,1e7aef96-16cc-43f8-95d4-e3bc582eb6d3,2022-10-11T18:06:17-04:00,,43.708491457889295,-79.725765695058982,35,2022-10-11T22:06:38Z
e8e1ccea-b149-ed11-aac0-0afb9334277d,7272fab8-c4e7-45bb-ba42-e9f6a06801c0,2022-10-11T18:07:18-04:00,,40.677088197878412,-73.754784061937414,4.7545695566849737,2022-10-11T22:13:23Z
145f9df5-bb49-ed11-aac0-0afb9334277d,fa996c7b-fd1c-4cba-990a-336f4cefaeb4,2022-10-11T17:53:25-04:00,2022-10-11T19:22:36-04:00,43.765128910095306,-79.413777466529865,45.758227913447541,2022-10-11T23:25:25Z
c1e82028-bf49-ed11-aac0-0afb9334277d,fa996c7b-fd1c-4cba-990a-336f4cefaeb4,2022-10-11T19:47:09-04:00,,43.791875381645724,-79.246863662585341,35,2022-10-11T23:48:09Z
e203cc8a-c249-ed11-aac0-0afb9334277d,ea3d6bc5-1a3b-4542-a06a-6c6c9328e0fa,2022-10-11T00:27:45-04:00,2022-10-11T20:09:28-04:00,43.77773129791273,-79.323313940460409,11.152313748135862,2022-10-12T00:12:23Z
2c88edf5-c849-ed11-aac0-0afb9334277d,a01397bb-a8a5-4cd1-af6f-6ace410f125d,2022-10-11T20:40:02-04:00,2022-10-11T20:57:21-04:00,43.798889898449083,-79.196388684646124,40.548326308156881,2022-10-12T00:58:24Z
26e28b46-ca49-ed11-aac0-0afb9334277d,5e0ae9ff-7cb8-499d-bee1-b1226869c14e,2022-10-11T21:03:17-04:00,,43.783485690800298,-79.184113011207927,49.666666666666664,2022-10-12T01:07:47Z
27e28b46-ca49-ed11-aac0-0afb9334277d,5e0ae9ff-7cb8-499d-bee1-b1226869c14e,2022-10-11T18:51:16-04:00,,43.887969182083019,-78.930998147322924,111.45329783430418,2022-10-12T01:07:47Z
28e28b46-ca49-ed11-aac0-0afb9334277d,5e0ae9ff-7cb8-499d-bee1-b1226869c14e,2022-10-11T18:51:16-04:00,2022-10-11T20:33:24-04:00,43.888028723453033,-78.933277925409556,104.22508116441131,2022-10-12T01:07:47Z
3ee28b46-ca49-ed11-aac0-0afb9334277d,5e0ae9ff-7cb8-499d-bee1-b1226869c14e,2022-10-11T16:56:26-04:00,2022-10-11T18:43:49-04:00,43.888069319335592,-78.933711235812638,25.397142665427488,2022-10-12T01:07:47Z
eea7b090-cc49-ed11-aac0-0afb9334277d,5e0ae9ff-7cb8-499d-bee1-b1226869c14e,2022-10-11T21:23:07-04:00,,43.739971195561743,-79.217105169781618,105.04989374223169,2022-10-12T01:24:16Z
24f03b08-cd49-ed11-aac0-0afb9334277d,a01397bb-a8a5-4cd1-af6f-6ace410f125d,2022-10-11T21:22:47-04:00,,43.895164555910227,-79.29186335637921,37,2022-10-12T01:27:37Z
cfbafe8b-cd49-ed11-aac0-0afb9334277d,a01397bb-a8a5-4cd1-af6f-6ace410f125d,2022-10-11T21:22:47-04:00,2022-10-11T21:30:06-04:00,43.895005762592277,-79.291509134477039,47,2022-10-12T01:31:09Z
50aad1b5-cd49-ed11-aac0-0afb9334277d,a01397bb-a8a5-4cd1-af6f-6ace410f125d,2022-10-11T21:31:31-04:00,,43.889989328893442,-79.285952598966333,13.557309932997299,2022-10-12T01:32:22Z
93869e1f-d549-ed11-aac0-0afb9334277d,1e7aef96-16cc-43f8-95d4-e3bc582eb6d3,2022-10-11T18:06:17-04:00,2022-10-11T22:24:45-04:00,43.708512969812283,-79.725748540002385,32.462029603870924,2022-10-12T02:25:26Z
c3e3be1a-d649-ed11-aac0-0afb9334277d,1e7aef96-16cc-43f8-95d4-e3bc582eb6d3,2022-10-11T22:27:56-04:00,,43.723046656939673,-79.718355508907933,99.429996679711806,2022-10-12T02:32:33Z
12958474-d649-ed11-aac0-0afb9334277d,1e7aef96-16cc-43f8-95d4-e3bc582eb6d3,2022-10-11T22:27:56-04:00,2022-10-11T22:34:40-04:00,43.721777154948029,-79.720517895240107,5.1097539960792719,2022-10-12T02:35:02Z
a5c0f627-d749-ed11-aac0-0afb9334277d,1e7aef96-16cc-43f8-95d4-e3bc582eb6d3,2022-10-11T22:37:58-04:00,,43.708646067441407,-79.725643033243244,35,2022-10-12T02:40:04Z
60478a93-d749-ed11-aac0-0afb9334277d,3223b573-6de0-4aeb-b005-dd2e467b1e62,2022-10-11T17:47:09-04:00,,43.782799093841021,-79.185460562627711,92.576804388239921,2022-10-12T02:42:58Z
f0ef75e1-d749-ed11-aac0-0afb9334277d,3223b573-6de0-4aeb-b005-dd2e467b1e62,2022-10-11T17:47:14-04:00,,43.782791480542073,-79.18545314358245,92.01356918868666,2022-10-12T02:45:16Z
67c22c65-d849-ed11-aac0-0afb9334277d,3223b573-6de0-4aeb-b005-dd2e467b1e62,2022-10-11T17:47:16-04:00,,43.782784383049034,-79.185445452022336,91.459923661838047,2022-10-12T02:48:50Z
a5934044-d949-ed11-aac0-0afb9334277d,ea3d6bc5-1a3b-4542-a06a-6c6c9328e0fa,2022-10-11T20:18:33-04:00,2022-10-11T22:53:24-04:00,43.795191947134128,-79.288663718617258,20.227269444046904,2022-10-12T02:55:03Z
4ed65de6-d949-ed11-aac0-0afb9334277d,ea3d6bc5-1a3b-4542-a06a-6c6c9328e0fa,2022-10-11T22:58:44-04:00,,43.777348057329093,-79.323862901807473,45.752000000000002,2022-10-12T02:59:37Z
71da4cc7-df49-ed11-aac0-0afb9334277d,5e0ae9ff-7cb8-499d-bee1-b1226869c14e,2022-10-11T23:36:09-04:00,,43.768736443996175,-79.18804507400813,40.142167043673986,2022-10-12T03:41:44Z
9c60421f-6349-ed11-aac0-0afb9334277d,ed16354a-961a-4e5e-83de-ce9a17b25a2f,2022-10-11T08:38:17-04:00,2022-10-11T08:45:09-04:00,43.732498709565562,-79.263714007411082,41.485366175806021,2022-10-11T12:49:28Z
2cb94514-6849-ed11-aac0-0afb9334277d,ed16354a-961a-4e5e-83de-ce9a17b25a2f,2022-10-11T09:20:30-04:00,,43.660221340335873,-79.40034386928437,183.34489866095143,2022-10-11T13:24:53Z
c85829ca-6d49-ed11-aac0-0afb9334277d,5e509967-0d3b-4fe1-a275-231ba42473d5,2022-10-11T09:49:35-04:00,2022-10-11T10:00:56-04:00,43.775519579983531,-79.575595692003333,70.940907858906755,2022-10-11T14:05:43Z
f03dc533-a249-ed11-aac0-0afb9334277d,3bb57dd9-1d69-471c-b769-b3323748bb9f,2022-10-11T16:16:29-04:00,,43.710446707406703,-79.273667383535482,35,2022-10-11T20:21:02Z
8da77585-ab49-ed11-aac0-0afb9334277d,852b45ca-f506-42b2-b5bd-2b0072b1b28b,2022-10-11T13:59:56-04:00,2022-10-11T17:26:14-04:00,43.938553980796037,-78.887933826119479,36.151341816124614,2022-10-11T21:27:44Z
eb435652-b949-ed11-aac0-0afb9334277d,6d9ce034-4fcd-407e-9e35-9dd9caafe1fe,2022-10-11T16:17:45-04:00,2022-10-11T19:05:25-04:00,43.850970350942582,-78.922499224995022,66.964777434965043,2022-10-11T23:06:23Z
fa07cc8a-c249-ed11-aac0-0afb9334277d,ff129772-aeab-4432-8136-8f94027b8504,2022-10-11T17:36:54-04:00,2022-10-11T20:10:10-04:00,43.700227957273896,-79.285253735226718,44.407150684823897,2022-10-12T00:12:29Z
701baf3c-c849-ed11-aac0-0afb9334277d,0501ba67-3406-4779-aff1-878a0e9f7885,2022-10-11T18:46:49-06:00,,62.456596574966071,-114.37166055734912,222.0041927326042,2022-10-12T00:53:11Z
a0818550-ef49-ed11-aac0-0afb9334277d,0501ba67-3406-4779-aff1-878a0e9f7885,2022-10-11T23:19:28-06:00,2022-10-11T23:24:46-06:00,62.571139941822167,-113.97624721360944,26.541555116190896,2022-10-12T05:32:52Z
a70f8d46-184a-ed11-aac0-0afb9334277d,3bb57dd9-1d69-471c-b769-b3323748bb9f,2022-10-12T06:21:50-04:00,,43.712748340371725,-79.277241490855133,3.5355339059327373,2022-10-12T10:26:10Z
2caf6433-1b4a-ed11-aac0-0afb9334277d,3bb57dd9-1d69-471c-b769-b3323748bb9f,2022-10-12T06:34:48-04:00,2022-10-12T06:43:57-04:00,43.73253113386383,-79.263549310355785,48.054176170862469,2022-10-12T10:47:02Z
a7319993-5a49-ed11-aac0-0afb9334277d,852b45ca-f506-42b2-b5bd-2b0072b1b28b,2022-10-10T22:19:20-04:00,2022-10-11T07:47:25-04:00,43.93853835053708,-78.887925166648387,22.738868461114564,2022-10-11T11:48:14Z
69063f5f-5f49-ed11-aac0-0afb9334277d,ed16354a-961a-4e5e-83de-ce9a17b25a2f,2022-10-10T16:55:05-04:00,2022-10-11T08:21:19-04:00,43.773650079040337,-79.249358184428303,21.739803138729933,2022-10-11T12:22:39Z
10d1abf8-6549-ed11-aac0-0afb9334277d,4217d9ff-07c0-42a5-9da9-f2e351b40709,2022-10-11T09:08:48-04:00,,44.148687074755109,-78.723301124624001,35,2022-10-11T13:09:53Z
13a17752-6a49-ed11-aac0-0afb9334277d,5e509967-0d3b-4fe1-a275-231ba42473d5,2022-10-11T07:22:12-04:00,2022-10-11T09:35:36-04:00,43.789633204098976,-79.535142554159592,22.374321290148156,2022-10-11T13:40:58Z
971574a7-6b49-ed11-aac0-0afb9334277d,5e509967-0d3b-4fe1-a275-231ba42473d5,2022-10-11T09:49:35-04:00,,43.775417980970666,-79.575473629702699,6.8753884720498233,2022-10-11T13:50:34Z
60ca6e22-8f49-ed11-aac0-0afb9334277d,852b45ca-f506-42b2-b5bd-2b0072b1b28b,2022-10-11T13:59:56-04:00,,43.938545662215134,-78.887916067627984,26,2022-10-11T18:04:26Z
9c329f66-9349-ed11-aac0-0afb9334277d,d77924dd-6dcf-4288-bb01-186fa08cfd0b,2022-10-10T23:58:05-04:00,2022-10-11T14:33:30-04:00,43.886983126642271,-78.982339212250679,9.6218543922409978,2022-10-11T18:35:03Z
2d46d92c-9549-ed11-aac0-0afb9334277d,d77924dd-6dcf-4288-bb01-186fa08cfd0b,2022-10-11T14:43:06-04:00,,43.883888602212714,-78.911873158731495,74,2022-10-11T18:47:39Z
efdf1934-9649-ed11-aac0-0afb9334277d,76acef3c-d659-4fdd-b258-3668a1597584,2022-10-10T17:07:39-04:00,2022-10-11T14:50:38-04:00,43.787902854150701,-79.207181382126777,3662.6970391559107,2022-10-11T18:55:05Z
dc7d4677-9749-ed11-aac0-0afb9334277d,4217d9ff-07c0-42a5-9da9-f2e351b40709,2022-10-11T15:03:28-04:00,,44.148746316367216,-78.723380781693564,19.65645592777112,2022-10-11T19:04:08Z
80024ca9-9949-ed11-aac0-0afb9334277d,6d9ce034-4fcd-407e-9e35-9dd9caafe1fe,2022-10-11T15:18:42-04:00,,43.886330495816502,-78.897713176990067,4.7433296880928477,2022-10-11T19:19:50Z
ceec8f50-9a49-ed11-aac0-0afb9334277d,0501ba67-3406-4779-aff1-878a0e9f7885,2022-10-11T11:13:21-06:00,2022-10-11T13:19:36-06:00,62.456266722225756,-114.37990014598047,25.613537206398703,2022-10-11T19:24:27Z
a4f01cda-9a49-ed11-aac0-0afb9334277d,d99872af-3068-4840-9118-3e5724df83b8,2022-10-11T15:07:04-04:00,2022-10-11T15:27:09-04:00,43.866161574730285,-79.036634551096483,67.1940560960103,2022-10-11T19:28:17Z
c94705fe-9a49-ed11-aac0-0afb9334277d,0501ba67-3406-4779-aff1-878a0e9f7885,2022-10-11T13:24:08-06:00,,62.456401887937361,-114.37127801907401,228.13084611155537,2022-10-11T19:29:22Z
49b5e21c-9c49-ed11-aac0-0afb9334277d,ed16354a-961a-4e5e-83de-ce9a17b25a2f,2022-10-11T14:45:55-04:00,2022-10-11T15:36:27-04:00,43.773875175975746,-79.281038263665479,90.0393173300575,2022-10-11T19:37:20Z
6b16d855-9e49-ed11-aac0-0afb9334277d,d99872af-3068-4840-9118-3e5724df83b8,2022-10-11T15:34:05-04:00,,43.860591148685657,-79.058857555698708,88.432563555878772,2022-10-11T19:53:17Z
25ca7199-9e49-ed11-aac0-0afb9334277d,d99872af-3068-4840-9118-3e5724df83b8,2022-10-11T15:34:05-04:00,2022-10-11T15:53:21-04:00,43.860440293882625,-79.058633003392799,104.02970562107917,2022-10-11T19:55:07Z
81d1fc34-9f49-ed11-aac0-0afb9334277d,d99872af-3068-4840-9118-3e5724df83b8,2022-10-11T15:55:07-04:00,,43.861610512514304,-79.051996204535214,44.666666666666664,2022-10-11T19:59:31Z
cd698fe2-9f49-ed11-aac0-0afb9334277d,0501ba67-3406-4779-aff1-878a0e9f7885,2022-10-11T13:24:08-06:00,2022-10-11T13:58:53-06:00,62.455962970492365,-114.37075418530637,91.732934557109516,2022-10-11T20:04:26Z
6151b413-a149-ed11-aac0-0afb9334277d,76acef3c-d659-4fdd-b258-3668a1597584,2022-10-11T15:56:51-04:00,,43.655557524460384,-79.384153139385631,3957.4932826342347,2022-10-11T20:12:55Z
b0c123a9-a149-ed11-aac0-0afb9334277d,0501ba67-3406-4779-aff1-878a0e9f7885,2022-10-11T14:11:40-06:00,,62.461701202566928,-114.35373678054485,40,2022-10-11T20:17:06Z
f5bedf15-a249-ed11-aac0-0afb9334277d,76acef3c-d659-4fdd-b258-3668a1597584,2022-10-11T15:56:51-04:00,2022-10-11T16:15:49-04:00,43.654261435191508,-79.38685266367591,3957.4932826342347,2022-10-11T20:20:08Z
1e539d51-a249-ed11-aac0-0afb9334277d,0501ba67-3406-4779-aff1-878a0e9f7885,2022-10-11T14:11:40-06:00,2022-10-11T14:16:46-06:00,62.461910356488943,-114.3532173013503,40,2022-10-11T20:21:43Z
3ba38d5d-a249-ed11-aac0-0afb9334277d,6d9ce034-4fcd-407e-9e35-9dd9caafe1fe,2022-10-11T16:17:45-04:00,,43.850700224579832,-78.922291033474394,39.724377712797917,2022-10-11T20:22:11Z
9e5c9e08-a449-ed11-aac0-0afb9334277d,0501ba67-3406-4779-aff1-878a0e9f7885,2022-10-11T14:17:10-06:00,,62.46462714681968,-114.35015187789996,52.972420401467986,2022-10-11T20:33:59Z
e60b5ca4-a449-ed11-aac0-0afb9334277d,76acef3c-d659-4fdd-b258-3668a1597584,2022-10-11T16:22:49-04:00,,43.654036416843596,-79.388457450005134,3957.4932826342347,2022-10-11T20:38:29Z
d428a1bd-a549-ed11-aac0-0afb9334277d,ff129772-aeab-4432-8136-8f94027b8504,2022-10-10T00:14:43-04:00,2022-10-11T16:45:23-04:00,43.700279071804438,-79.285218627416839,18.517991556370315,2022-10-11T20:46:18Z
5973793d-a849-ed11-aac0-0afb9334277d,ff129772-aeab-4432-8136-8f94027b8504,2022-10-11T16:48:13-04:00,,43.691363268855497,-79.28872321909148,28.258124307398518,2022-10-11T21:04:06Z
3e7e609d-ab49-ed11-aac0-0afb9334277d,ff129772-aeab-4432-8136-8f94027b8504,2022-10-11T16:48:13-04:00,2022-10-11T17:25:54-04:00,43.691332431666439,-79.288626120551086,78.055578050542323,2022-10-11T21:28:19Z
903eda08-ac49-ed11-aac0-0afb9334277d,ff129772-aeab-4432-8136-8f94027b8504,2022-10-11T17:26:00-04:00,,43.695275538519951,-79.285829007186237,34,2022-10-11T21:31:16Z
a759da08-ac49-ed11-aac0-0afb9334277d,ff129772-aeab-4432-8136-8f94027b8504,2022-10-11T17:26:00-04:00,2022-10-11T17:30:40-04:00,43.695350130294536,-79.28583719593351,61,2022-10-11T21:31:25Z
154a9c45-ad49-ed11-aac0-0afb9334277d,852b45ca-f506-42b2-b5bd-2b0072b1b28b,2022-10-11T17:35:39-04:00,,43.941692900652669,-78.836950634901584,66.333333333333329,2022-10-11T21:40:10Z
0bacf3da-ad49-ed11-aac0-0afb9334277d,ff129772-aeab-4432-8136-8f94027b8504,2022-10-11T17:36:54-04:00,,43.699812248940844,-79.28518696340295,51.136369649663457,2022-10-11T21:44:18Z
faba2126-b049-ed11-aac0-0afb9334277d,0501ba67-3406-4779-aff1-878a0e9f7885,2022-10-11T14:17:10-06:00,2022-10-11T15:52:45-06:00,62.464661622021907,-114.35015327672454,37.466596709630636,2022-10-11T22:00:51Z
103f1b44-b049-ed11-aac0-0afb9334277d,76acef3c-d659-4fdd-b258-3668a1597584,2022-10-11T17:08:14-04:00,2022-10-11T17:57:08-04:00,43.653433363513493,-79.388109124290267,3957.4932826342347,2022-10-11T22:01:43Z
3bd7c0f6-b149-ed11-aac0-0afb9334277d,76acef3c-d659-4fdd-b258-3668a1597584,2022-10-11T17:57:08-04:00,,43.652641284267574,-79.385745485510768,3957.4932826342347,2022-10-11T22:13:52Z
51f82682-b449-ed11-aac0-0afb9334277d,d99872af-3068-4840-9118-3e5724df83b8,2022-10-11T17:41:10-04:00,,43.685683985715372,-79.619483153834707,90.123161581616074,2022-10-11T22:31:59Z
5e93d8d7-b649-ed11-aac0-0afb9334277d,0501ba67-3406-4779-aff1-878a0e9f7885,2022-10-11T15:52:58-06:00,2022-10-11T16:42:22-06:00,62.461916344868442,-114.3532439014887,62.137392253579726,2022-10-11T22:48:40Z
22f1d14f-b749-ed11-aac0-0afb9334277d,76acef3c-d659-4fdd-b258-3668a1597584,2022-10-11T17:57:08-04:00,2022-10-11T18:47:28-04:00,43.651885198878354,-79.382809597342543,3957.4932826342347,2022-10-11T22:52:02Z
204c75da-b849-ed11-aac0-0afb9334277d,d99872af-3068-4840-9118-3e5724df83b8,2022-10-11T17:41:10-04:00,2022-10-11T19:02:25-04:00,43.685541021759605,-79.618596646158508,64.81335946621445,2022-10-11T23:03:10Z
7d9e3e16-b949-ed11-aac0-0afb9334277d,76acef3c-d659-4fdd-b258-3668a1597584,2022-10-11T18:47:40-04:00,,43.653118333246461,-79.386367495715902,3957.4932826342347,2022-10-11T23:04:46Z
7b16c9db-b949-ed11-aac0-0afb9334277d,0501ba67-3406-4779-aff1-878a0e9f7885,2022-10-11T16:54:29-06:00,,62.456781691956259,-114.36458688703229,72.449971273636322,2022-10-11T23:10:20Z
9076d55c-bd49-ed11-aac0-0afb9334277d,6d9ce034-4fcd-407e-9e35-9dd9caafe1fe,2022-10-11T19:33:57-04:00,,43.886376755641287,-78.89774505727334,4.7888330848050851,2022-10-11T23:35:23Z
a7e2a1b1-bf49-ed11-aac0-0afb9334277d,6b827de8-fe47-4007-aad3-202655b954e3,2022-10-11T19:47:35-04:00,,40.728177537782919,-73.847979628130048,65,2022-10-11T23:52:00Z
37167b12-c149-ed11-aac0-0afb9334277d,3bb57dd9-1d69-471c-b769-b3323748bb9f,2022-10-11T19:49:36-04:00,2022-10-11T19:57:12-04:00,43.71115774024571,-79.275925893170481,23,2022-10-12T00:01:54Z
de837518-c149-ed11-aac0-0afb9334277d,3bb57dd9-1d69-471c-b769-b3323748bb9f,2022-10-11T20:01:37-04:00,,43.710451868146762,-79.273671490004944,6.0318126798669827,2022-10-12T00:02:04Z
cfc6bb96-c249-ed11-aac0-0afb9334277d,852b45ca-f506-42b2-b5bd-2b0072b1b28b,2022-10-11T17:35:39-04:00,2022-10-11T20:10:49-04:00,43.941620839342434,-78.83699240335541,39.61552074014385,2022-10-12T00:12:45Z
232bf882-c549-ed11-aac0-0afb9334277d,852b45ca-f506-42b2-b5bd-2b0072b1b28b,2022-10-11T20:32:09-04:00,,43.938532198178052,-78.888118520847243,17.153492188449849,2022-10-12T00:33:44Z
e65ed501-c649-ed11-aac0-0afb9334277d,d99872af-3068-4840-9118-3e5724df83b8,2022-10-11T20:34:09-04:00,,43.861464150977042,-79.051900393749733,37.666666666666664,2022-10-12T00:37:12Z
af2542b9-c749-ed11-aac0-0afb9334277d,ff129772-aeab-4432-8136-8f94027b8504,2022-10-11T20:32:05-04:00,,43.788055857930843,-79.26515809422358,48.069885859825398,2022-10-12T00:49:32Z
267be512-c849-ed11-aac0-0afb9334277d,0501ba67-3406-4779-aff1-878a0e9f7885,2022-10-11T16:54:29-06:00,2022-10-11T18:46:04-06:00,62.456691741736762,-114.36472806831959,38.553769521933752,2022-10-12T00:52:02Z
665f5564-d149-ed11-aac0-0afb9334277d,ff129772-aeab-4432-8136-8f94027b8504,2022-10-11T20:32:05-04:00,2022-10-11T21:57:19-04:00,43.788052918679135,-79.265136189101185,36.325867022426387,2022-10-12T01:58:42Z
afee7309-d349-ed11-aac0-0afb9334277d,76acef3c-d659-4fdd-b258-3668a1597584,2022-10-11T20:14:00-04:00,2022-10-11T21:23:53-04:00,43.653586377618353,-79.384775149590766,3957.4932826342347,2022-10-12T02:10:32Z
b0ee7309-d349-ed11-aac0-0afb9334277d,76acef3c-d659-4fdd-b258-3668a1597584,2022-10-11T21:51:09-04:00,,43.727775600000001,-79.287539300000006,4377.5085331328346,2022-10-12T02:10:32Z
10fede9a-d349-ed11-aac0-0afb9334277d,ff129772-aeab-4432-8136-8f94027b8504,2022-10-11T22:10:18-04:00,,43.726325523691862,-79.246688574902237,4.5964125907062181,2022-10-12T02:14:36Z
209fbcbe-d349-ed11-aac0-0afb9334277d,ff129772-aeab-4432-8136-8f94027b8504,2022-10-11T22:10:18-04:00,2022-10-11T22:15:01-04:00,43.727968944651785,-79.245096876473269,6.9387179758629225,2022-10-12T02:15:34Z
59d2b52c-d649-ed11-aac0-0afb9334277d,ff129772-aeab-4432-8136-8f94027b8504,2022-10-11T22:28:34-04:00,,43.700688386257333,-79.285494949742613,143.25717844337265,2022-10-12T02:32:59Z
1c7b9881-d749-ed11-aac0-0afb9334277d,d77924dd-6dcf-4288-bb01-186fa08cfd0b,2022-10-11T22:37:27-04:00,,43.886696314925878,-78.912787147369087,188.33333333333334,2022-10-12T02:42:33Z
1d7b9881-d749-ed11-aac0-0afb9334277d,d77924dd-6dcf-4288-bb01-186fa08cfd0b,2022-10-11T14:43:06-04:00,2022-10-11T22:37:26-04:00,43.883422229638562,-78.912297466107646,23.148589231231615,2022-10-12T02:42:33Z
003f56ff-d749-ed11-aac0-0afb9334277d,d77924dd-6dcf-4288-bb01-186fa08cfd0b,2022-10-11T22:37:27-04:00,2022-10-11T22:44:29-04:00,43.88713519111397,-78.912761177503725,45,2022-10-12T02:46:05Z
cd034f05-d849-ed11-aac0-0afb9334277d,76acef3c-d659-4fdd-b258-3668a1597584,2022-10-11T21:51:09-04:00,2022-10-11T22:43:09-04:00,43.727775600000001,-79.287539300000006,4377.5085331328346,2022-10-12T02:46:10Z
8e787d08-d949-ed11-aac0-0afb9334277d,d77924dd-6dcf-4288-bb01-186fa08cfd0b,2022-10-11T22:52:34-04:00,,43.887163979731376,-78.98230473519672,20,2022-10-12T02:53:24Z
c5975e0a-dc49-ed11-aac0-0afb9334277d,76acef3c-d659-4fdd-b258-3668a1597584,2022-10-11T22:58:35-04:00,,43.790179980216152,-79.20940067167524,3662.6970391559107,2022-10-12T03:15:01Z
474cbf3b-ee49-ed11-aac0-0afb9334277d,0501ba67-3406-4779-aff1-878a0e9f7885,2022-10-11T23:19:28-06:00,,62.571699957790507,-113.97672419617641,200,2022-10-12T05:25:11Z
9a4a361b-f349-ed11-aac0-0afb9334277d,0501ba67-3406-4779-aff1-878a0e9f7885,2022-10-11T23:54:59-06:00,,62.502008011484747,-114.23734817198373,102.80849780687892,2022-10-12T06:00:04Z
151206c4-094a-ed11-aac0-0afb9334277d,0501ba67-3406-4779-aff1-878a0e9f7885,2022-10-12T02:37:07-06:00,,62.45879902058379,-114.37289455703448,70.333333333333329,2022-10-12T08:42:15Z
856129ca-6d49-ed11-aac0-0afb9334277d,5e509967-0d3b-4fe1-a275-231ba42473d5,2022-10-11T10:01:32-04:00,,43.778156835604605,-79.575385528931378,21.9517989865099,2022-10-11T14:05:52Z
e10b931a-6e49-ed11-aac0-0afb9334277d,3bb57dd9-1d69-471c-b769-b3323748bb9f,2022-10-11T09:56:07-04:00,,43.671323559494027,-79.386810850151704,95.987943039249743,2022-10-11T14:07:59Z
2103c9d3-6e49-ed11-aac0-0afb9334277d,39efadc3-7957-4b75-b560-d0d6c89cfe8b,2022-10-11T10:06:05-04:00,,43.805999428025736,-79.219695662180683,89,2022-10-11T14:13:16Z
2203c9d3-6e49-ed11-aac0-0afb9334277d,39efadc3-7957-4b75-b560-d0d6c89cfe8b,2022-10-11T00:37:48-04:00,2022-10-11T09:08:19-04:00,43.804064331193587,-79.209394232070281,16.728044407077554,2022-10-11T14:13:16Z
2303c9d3-6e49-ed11-aac0-0afb9334277d,39efadc3-7957-4b75-b560-d0d6c89cfe8b,2022-10-11T09:25:25-04:00,2022-10-11T09:53:10-04:00,43.806562411622345,-79.219909506717968,49.266219637434673,2022-10-11T14:13:16Z
2603c9d3-6e49-ed11-aac0-0afb9334277d,39efadc3-7957-4b75-b560-d0d6c89cfe8b,2022-10-11T09:25:25-04:00,,43.806687833162286,-79.219528841996691,61,2022-10-11T14:13:16Z
2803c9d3-6e49-ed11-aac0-0afb9334277d,39efadc3-7957-4b75-b560-d0d6c89cfe8b,2022-10-11T10:08:48-04:00,,43.804036215324921,-79.209535390482287,20,2022-10-11T14:13:16Z
3c03c9d3-6e49-ed11-aac0-0afb9334277d,39efadc3-7957-4b75-b560-d0d6c89cfe8b,2022-10-11T10:06:05-04:00,2022-10-11T10:06:08-04:00,43.806478627900098,-79.21902485420955,45.752000000000002,2022-10-11T14:13:16Z
61aa6781-6f49-ed11-aac0-0afb9334277d,5e509967-0d3b-4fe1-a275-231ba42473d5,2022-10-11T10:01:32-04:00,2022-10-11T10:12:51-04:00,43.777926625247488,-79.575628839433094,78.870453664492146,2022-10-11T14:18:01Z
90d521d6-7049-ed11-aac0-0afb9334277d,5e509967-0d3b-4fe1-a275-231ba42473d5,2022-10-11T10:14:50-04:00,,43.775159155596164,-79.576978762919495,120.31271963826201,2022-10-11T14:27:38Z
8f066a8e-8749-ed11-aac0-0afb9334277d,0501ba67-3406-4779-aff1-878a0e9f7885,2022-10-11T00:51:17-06:00,2022-10-11T11:09:10-06:00,62.458837343946989,-114.37294135862662,18.790377907741838,2022-10-11T17:10:13Z
e2f023a7-8849-ed11-aac0-0afb9334277d,0501ba67-3406-4779-aff1-878a0e9f7885,2022-10-11T11:13:18-06:00,,62.45622845768969,-114.37982207755867,40,2022-10-11T17:18:04Z
4b2d8d2f-8b49-ed11-aac0-0afb9334277d,d99872af-3068-4840-9118-3e5724df83b8,2022-10-11T13:33:11-04:00,,43.861582369466696,-79.052521483989594,36.427703485091783,2022-10-11T17:36:14Z
d0e5f137-8d49-ed11-aac0-0afb9334277d,852b45ca-f506-42b2-b5bd-2b0072b1b28b,2022-10-11T07:59:07-04:00,2022-10-11T13:49:55-04:00,43.918228613465914,-78.949246674823755,66.611643518438342,2022-10-11T17:50:44Z
4b3adb62-8e49-ed11-aac0-0afb9334277d,ed16354a-961a-4e5e-83de-ce9a17b25a2f,2022-10-11T09:20:30-04:00,2022-10-11T13:57:51-04:00,43.660506272341806,-79.400270182287656,48.174658695515134,2022-10-11T17:59:10Z
a0d19dce-8e49-ed11-aac0-0afb9334277d,3bb57dd9-1d69-471c-b769-b3323748bb9f,2022-10-11T13:57:37-04:00,,43.661024015031245,-79.395411481844221,61,2022-10-11T18:02:09Z
38fa464c-8f49-ed11-aac0-0afb9334277d,a33e1d38-6ee8-4da6-993b-a94a8ae7fc30,2022-10-11T14:00:16-04:00,,44.358757014366269,-78.751159658510858,35,2022-10-11T18:05:35Z
5d1c42c1-9449-ed11-aac0-0afb9334277d,bf670311-c590-473a-98ab-d719ebf0f2ab,2022-10-11T14:38:15-04:00,2022-10-11T14:43:40-04:00,43.732683685875756,-79.716614077740957,129.34693615778895,2022-10-11T18:44:41Z
75c40aee-ae49-ed11-aac0-0afb9334277d,43adea65-466c-4891-8bd9-301c4d6560c8,2022-10-11T15:15:59-04:00,2022-10-11T17:47:39-04:00,43.66679943337359,-79.403381155996811,23.925088172279068,2022-10-11T21:52:05Z
faf0d6cf-b949-ed11-aac0-0afb9334277d,afbd4906-0513-42b1-91ce-d25065842f55,2022-10-11T19:08:36-04:00,,35.966713880964569,-79.068653003167739,28.498503120292199,2022-10-11T23:09:59Z
23dfac05-7449-ed11-aac0-0afb9334277d,43adea65-466c-4891-8bd9-301c4d6560c8,2022-10-11T10:45:56-04:00,,43.66825608372686,-79.397454894083253,15.562647595121007,2022-10-11T14:50:19Z
5e0ec5aa-7c49-ed11-aac0-0afb9334277d,d520094e-39dc-47da-b764-049277fa48ad,2022-10-09T14:08:15-04:00,2022-10-11T11:49:30-04:00,43.747849099472845,-79.310950188772111,11.674086917953275,2022-10-11T15:52:21Z
abcc4eba-7f49-ed11-aac0-0afb9334277d,d520094e-39dc-47da-b764-049277fa48ad,2022-10-11T12:09:34-04:00,,43.694510375813316,-79.288992045204552,45,2022-10-11T16:14:08Z
bc052a72-8449-ed11-aac0-0afb9334277d,afbd4906-0513-42b1-91ce-d25065842f55,2022-10-10T14:08:31-04:00,2022-10-11T12:46:50-04:00,35.966913497166807,-79.068950158221526,12.716399095834758,2022-10-11T16:47:57Z
a10aba01-8549-ed11-aac0-0afb9334277d,afbd4906-0513-42b1-91ce-d25065842f55,2022-10-11T12:47:04-04:00,,35.965090386804853,-79.068020070358529,44.459381051870729,2022-10-11T16:51:55Z
4df96294-8749-ed11-aac0-0afb9334277d,d520094e-39dc-47da-b764-049277fa48ad,2022-10-11T13:02:42-04:00,,43.633488202167293,-79.412869685696236,91.666666666666671,2022-10-11T17:10:28Z
1a3dfdf9-8749-ed11-aac0-0afb9334277d,d520094e-39dc-47da-b764-049277fa48ad,2022-10-11T13:02:43-04:00,2022-10-11T13:10:09-04:00,43.633586070668244,-79.412954769654391,112.33333333333333,2022-10-11T17:13:17Z
b758a5c8-8e49-ed11-aac0-0afb9334277d,a33e1d38-6ee8-4da6-993b-a94a8ae7fc30,2022-10-10T18:41:17-04:00,2022-10-11T13:59:53-04:00,44.361425683120856,-78.752906567723514,21.602664614278478,2022-10-11T18:01:58Z
e0494b46-9249-ed11-aac0-0afb9334277d,a33e1d38-6ee8-4da6-993b-a94a8ae7fc30,2022-10-11T14:00:16-04:00,2022-10-11T14:25:19-04:00,44.359069595214869,-78.751217694950867,79.535816704391095,2022-10-11T18:26:57Z
d048f08d-9249-ed11-aac0-0afb9334277d,bf670311-c590-473a-98ab-d719ebf0f2ab,2022-10-10T21:16:46-04:00,2022-10-11T14:25:17-04:00,43.729695438195371,-79.714388880705542,12.52236740693705,2022-10-11T18:28:59Z
0a3ecdab-9249-ed11-aac0-0afb9334277d,a33e1d38-6ee8-4da6-993b-a94a8ae7fc30,2022-10-11T14:25:32-04:00,,44.361561600627752,-78.752985277891426,80,2022-10-11T18:29:52Z
7a578ded-9249-ed11-aac0-0afb9334277d,bf670311-c590-473a-98ab-d719ebf0f2ab,2022-10-11T14:26:25-04:00,,43.734068092278712,-79.717438800572808,67,2022-10-11T18:31:37Z
8d870cea-9349-ed11-aac0-0afb9334277d,bf670311-c590-473a-98ab-d719ebf0f2ab,2022-10-11T14:26:25-04:00,2022-10-11T14:33:59-04:00,43.733325533813137,-79.719466182634065,42,2022-10-11T18:38:36Z
dd62c044-9549-ed11-aac0-0afb9334277d,bf670311-c590-473a-98ab-d719ebf0f2ab,2022-10-11T14:43:53-04:00,,43.729916326298813,-79.715150561821375,171.78842490008873,2022-10-11T18:48:21Z
c2197d31-9949-ed11-aac0-0afb9334277d,43adea65-466c-4891-8bd9-301c4d6560c8,2022-10-11T12:26:57-04:00,2022-10-11T13:22:31-04:00,43.667551283325551,-79.395148810753213,62.251956430573266,2022-10-11T19:16:32Z
6b014ca9-9949-ed11-aac0-0afb9334277d,d520094e-39dc-47da-b764-049277fa48ad,2022-10-11T13:56:58-04:00,2022-10-11T15:14:33-04:00,43.719160648260257,-79.460935016211963,35.934975119623289,2022-10-11T19:19:49Z
c3e823cd-9949-ed11-aac0-0afb9334277d,43adea65-466c-4891-8bd9-301c4d6560c8,2022-10-11T15:15:59-04:00,,43.666757104535399,-79.403673944005746,35.001836899928811,2022-10-11T19:20:50Z
f7aab150-a949-ed11-aac0-0afb9334277d,a33e1d38-6ee8-4da6-993b-a94a8ae7fc30,2022-10-11T14:25:32-04:00,2022-10-11T17:10:37-04:00,44.361341325453282,-78.752903956000878,25.832136152868095,2022-10-11T21:11:51Z
610db326-ac49-ed11-aac0-0afb9334277d,afbd4906-0513-42b1-91ce-d25065842f55,2022-10-11T12:47:04-04:00,2022-10-11T17:31:03-04:00,35.966761345872584,-79.068842564312291,68.77179670206462,2022-10-11T21:32:13Z
17a93bb6-ac49-ed11-aac0-0afb9334277d,a33e1d38-6ee8-4da6-993b-a94a8ae7fc30,2022-10-11T17:31:35-04:00,,44.270864864852527,-78.605907708479648,13.760514659214078,2022-10-11T21:36:08Z
a4ee7f5d-ad49-ed11-aac0-0afb9334277d,a33e1d38-6ee8-4da6-993b-a94a8ae7fc30,2022-10-11T17:31:35-04:00,2022-10-11T17:36:16-04:00,44.270662775470178,-78.605973016377689,4.7053543634349388,2022-10-11T21:40:49Z
735bdef2-ad49-ed11-aac0-0afb9334277d,a33e1d38-6ee8-4da6-993b-a94a8ae7fc30,2022-10-11T17:40:24-04:00,,44.268281688023841,-78.60461429700122,35,2022-10-11T21:45:06Z
d44ca30f-af49-ed11-aac0-0afb9334277d,afbd4906-0513-42b1-91ce-d25065842f55,2022-10-11T17:47:20-04:00,,35.928229919236479,-79.026838300391773,35,2022-10-11T21:52:56Z
9463554b-af49-ed11-aac0-0afb9334277d,a33e1d38-6ee8-4da6-993b-a94a8ae7fc30,2022-10-11T17:40:24-04:00,2022-10-11T17:48:46-04:00,44.268332377778968,-78.604379633640463,57.593759946207456,2022-10-11T21:54:38Z
ebc0b786-b149-ed11-aac0-0afb9334277d,a33e1d38-6ee8-4da6-993b-a94a8ae7fc30,2022-10-11T18:05:00-04:00,,44.270716169890264,-78.607355514614468,8.0810908749243424,2022-10-11T22:10:37Z
bd4e7351-b349-ed11-aac0-0afb9334277d,a33e1d38-6ee8-4da6-993b-a94a8ae7fc30,2022-10-11T18:18:08-04:00,,44.268275150139132,-78.604524442999249,4.7898047220279283,2022-10-11T22:23:30Z
c88718b3-b549-ed11-aac0-0afb9334277d,a33e1d38-6ee8-4da6-993b-a94a8ae7fc30,2022-10-11T18:18:08-04:00,2022-10-11T18:35:45-04:00,44.268755078545695,-78.605061722394822,59.603781563074719,2022-10-11T22:40:28Z
3ca52cfc-b649-ed11-aac0-0afb9334277d,d520094e-39dc-47da-b764-049277fa48ad,2022-10-11T18:47:27-04:00,,43.747449111489175,-79.311272912733529,37,2022-10-11T22:49:46Z
3ea52cfc-b649-ed11-aac0-0afb9334277d,d520094e-39dc-47da-b764-049277fa48ad,2022-10-11T16:28:56-04:00,2022-10-11T18:38:31-04:00,43.726163007299007,-79.302570029794666,58.916247630035841,2022-10-11T22:49:46Z
bcf16be5-b749-ed11-aac0-0afb9334277d,afbd4906-0513-42b1-91ce-d25065842f55,2022-10-11T17:47:20-04:00,2022-10-11T18:52:35-04:00,35.928279195995813,-79.02685429419715,33.338125781883889,2022-10-11T22:56:18Z
f2cc4f58-b949-ed11-aac0-0afb9334277d,a33e1d38-6ee8-4da6-993b-a94a8ae7fc30,2022-10-11T19:01:34-04:00,,44.361556706410013,-78.752975246693339,80,2022-10-11T23:06:40Z
3d6d5d6a-ca49-ed11-aac0-0afb9334277d,43adea65-466c-4891-8bd9-301c4d6560c8,2022-10-11T17:48:41-04:00,2022-10-11T21:04:24-04:00,43.662741288483055,-79.398424059348386,96.579208123227275,2022-10-12T01:08:49Z
7ccd5570-ca49-ed11-aac0-0afb9334277d,43adea65-466c-4891-8bd9-301c4d6560c8,2022-10-11T21:04:25-04:00,,43.667402282601813,-79.399664365826496,10.700191469160256,2022-10-12T01:08:58Z
6603b27e-cc49-ed11-aac0-0afb9334277d,43adea65-466c-4891-8bd9-301c4d6560c8,2022-10-11T21:04:25-04:00,2022-10-11T21:14:11-04:00,43.667076082503868,-79.399581995241334,112.5,2022-10-12T01:23:46Z
85aae598-ce49-ed11-aac0-0afb9334277d,43adea65-466c-4891-8bd9-301c4d6560c8,2022-10-11T21:23:17-04:00,2022-10-11T21:29:43-04:00,43.644381979622722,-79.381394639475928,40,2022-10-12T01:38:44Z
108e5df9-d749-ed11-aac0-0afb9334277d,43adea65-466c-4891-8bd9-301c4d6560c8,2022-10-11T22:35:46-04:00,,43.830009189772369,-78.999614323161751,11.785655132780152,2022-10-12T02:45:56Z
0d2542b9-c749-ed11-aac0-0afb9334277d,01801252-3a7e-4f5f-8b6d-49e8da3902f3,2022-10-10T17:48:17-07:00,2022-10-11T17:42:14-07:00,49.253576058736861,-123.23399286629056,26.372071570371482,2022-10-12T00:49:32Z
